Geoname ID;Name;ASCII Name;Alternate Names;Latitude;Longitude;Feature Class;Feature Code;Country Code;Country Code 2;Admin1 Code;Admin2 Code;Admin3 Code;Admin4 Code;Population;Elevation;DIgital Elevation Model;Timezone;Modification date;Country;Coordinates
687065;Zhovtneve;Zhovtneve;Biliche,Bilicze,Vilichi,Zhovtneve,Zhovtnevoye,Жовтневе;50.66365;24.24918;P;PPL;UA;;24;;;;4652;;214;Europe/Kiev;2012-11-08;Ukraine;50.66365, 24.24918
688696;Vysokyy;Vysokyy;Visokij,Vysokiy,Vysokyy,Високий;49.89156;36.12175;P;PPL;UA;;07;;;;10988;;154;Europe/Kiev;2014-01-12;Ukraine;49.89156, 36.12175
688805;Vvedenka;Vvedenka;Vvedenka,Vvedenskoye,Введенка;49.82372;36.50264;P;PPL;UA;;07;;;;2628;;97;Europe/Kiev;2014-06-27;Ukraine;49.82372, 36.50264
689198;Volnovakha;Volnovakha;Volnovakha,Volovakha,Wolnowacha,Волноваха;47.60103;37.49674;P;PPLA2;UA;;05;;;;23731;;260;Europe/Kiev;2014-12-03;Ukraine;47.60103, 37.49674
689857;Verkhnyachka;Verkhnyachka;Verkhnjachka,Verkhnyachka,Verkhnyochka,Верхнячка;48.82849;30.03957;P;PPL;UA;;01;;;;4130;;248;Europe/Kiev;2014-06-26;Ukraine;48.82849, 30.03957
690288;Velyka Oleksandrivka;Velyka Oleksandrivka;Bol'shaya Aleksandrovka,Bolschaja Aleksandrowka,Bol’shaya Aleksandrovka,Velika Oleksandrivka,Velikaya Aleksandrovka,Velyka Oleksandrivka,Велика Олександрівка;47.31969;33.30373;P;PPLA2;UA;;08;;;;7281;;45;Europe/Kiev;2014-12-03;Ukraine;47.31969, 33.30373
690600;Ustynivka;Ustynivka;Ustinivka,Ustinovka,Ustipovka,Ustynivka,Устинівка;47.95507;32.53674;P;PPLA2;UA;;10;;;;4003;;84;Europe/Kiev;2014-11-05;Ukraine;47.95507, 32.53674
691155;Tsarychanka;Tsarychanka;Carichanka,Carychanka,Tsarichanka,Tsarychanka,Zaritschanka,Царичанка,Царычанка;48.93697;34.4786;P;PPLA2;UA;;04;;;;7638;;68;Europe/Kiev;2014-12-03;Ukraine;48.93697, 34.4786
692713;Staryy Krym;Staryy Krym;Starij Krim,Stary Krym,Staryj Krym,Staryy Krym,Старий Крим,Старый Крым;47.16146;37.48934;P;PPL;UA;;05;;;;5977;;45;Europe/Kiev;2014-09-05;Ukraine;47.16146, 37.48934
692844;Starychi;Starychi;Starichi,Starici,Stariska,Starychi,Stazhiska,Stirichi,Старичі;49.98001;23.55848;P;PPL;UA;;15;;;;3293;;281;Europe/Kiev;2012-01-18;Ukraine;49.98001, 23.55848
692944;Stanislav;Stanislav;Stanislav,Станіслав;46.56909;32.14777;P;PPL;UA;;08;;;;4726;;40;Europe/Kiev;2012-01-18;Ukraine;46.56909, 32.14777
693701;Skala-Podil’s’ka;Skala-Podil's'ka;Skala,Skala Podolska,Skala-Podil's'ka,Skala-Podil’s’ka,Skala-Podol'skaja,Skala-Podol'skaya,Skala-Podol’skaya,Skała,Skała Podolska,Скала-Подольская,Скала-Подільська;48.85149;26.19909;P;PPL;UA;;22;;;;4255;;246;Europe/Kiev;2013-02-16;Ukraine;48.85149, 26.19909
695326;Rozhyshche;Rozhyshche;Rozhishche,Rozhishhe,Rozhyshche,Rozyszcze,Рожище;50.91542;25.26906;P;PPLA2;UA;;24;;;;13280;;180;Europe/Kiev;2014-08-06;Ukraine;50.91542, 25.26906
695516;Rokytne;Rokytne;Rakitno,Rakitnoye,Rokitino,Rokitne,Rokitno,Rokitnoye,Rokytne,Рокитне;51.2796;27.214;P;PPLA2;UA;;19;;;;11726;;174;Europe/Kiev;2014-08-06;Ukraine;51.2796, 27.214
696108;Pryluky;Pryluky;Priluki,Pryluki,Pryluky,Pryłuki,Прилуки;50.59323;32.38761;P;PPLA2;UA;;02;;;;62823;;127;Europe/Kiev;2014-11-05;Ukraine;50.59323, 32.38761
696275;Pryozerne;Pryozerne;Churabash,Churbash,Churubash,Churubash Tatarskiy,Priozerne,Priozernoe,Priozernoye,Pryozerne,Vasil'yevka,Vasil’yevka,Приозерне,Приозерное;45.2699;36.33405;P;PPL;UA;;11;;;;3013;;9;Europe/Simferopol;2015-03-08;Ukraine;45.2699, 36.33405
696557;Popil'nya;Popil'nya;Poelnja,Popel'naya,Popel'nja,Popel'nya,Popil'nja,Popilnia,Попельня,Попільня;49.96652;29.44353;P;PPL;UA;UA;27;;;;6109;;199;Europe/Kiev;2014-01-10;Ukraine;49.96652, 29.44353
697839;Pavlivka;Pavlivka;Pavlivka,Pavlovka,Павловка,Павлівка;49.60864;38.70917;P;PPL;UA;;14;;;;1135;;94;Europe/Zaporozhye;2013-12-12;Ukraine;49.60864, 38.70917
698428;Orikhiv;Orikhiv;Orechoff,Orechowka,Orekhov,Orihiv,Orikhiv,Оріхів;47.56731;35.78575;P;PPLA2;UA;;26;;;;17287;;57;Europe/Zaporozhye;2014-06-05;Ukraine;47.56731, 35.78575
698807;Obodivka;Obodivka;Obodivka,Obodovka,Obodovka Novaya,Ободівка;48.40514;29.24775;P;PPL;UA;;23;;;;3378;;185;Europe/Kiev;2012-01-18;Ukraine;48.40514, 29.24775
698921;Novi Troyany;Novi Troyany;Novi Troani,Novi Trojani,Novi Troyany,Novo Traian,Novo Trajan,Novotroyan,Novyye Troyany,Traian,Traianul-Nou,Trayan,Trayanu,Нові Трояни;45.94275;28.85628;P;PPL;UA;;17;;;;3992;;121;Europe/Kiev;2015-02-06;Ukraine;45.94275, 28.85628
699607;Novofedorovka;Novofedorovka;Novaya Fedorovka,Novofedorovka,Новофедоровка;46.17128;32.31781;P;PPL;UA;;08;;;;5620;;6;Europe/Kiev;2012-01-18;Ukraine;46.17128, 32.31781
700261;Netishyn;Netishyn;Neteshin,Netishin,Netishyn,Netisin,Solov'ye Goryn',Solov’ye Goryn’,Нетешин,Нетішин;50.34004;26.64171;P;PPL;UA;;09;;;;33063;;207;Europe/Kiev;2013-01-10;Ukraine;50.34004, 26.64171
700646;Mukacheve;Mukacheve;Mikachevo,Mukaceve,Mukacevo,Mukacheve,Mukachevo,Mukaczewo,Mukatschewe,Mukačeve,Mukačevo,Munkacevo,Munkachevo,Munkacs,Munkačevo,Munkács,Мукачеве,Мукачево,מונקאטש,מונקאץ';48.43919;22.71779;P;PPLA2;UA;;25;;;;81633;;126;Europe/Uzhgorod;2014-12-03;Ukraine;48.43919, 22.71779
701104;Milove;Milove;Melovoe,Melovoy,Melovoye,Milove,Меловое,Мілове;49.37528;40.13222;P;PPLA2;UA;;14;;;;5418;;185;Europe/Zaporozhye;2014-08-06;Ukraine;49.37528, 40.13222
702574;Lutovynivka;Lutovynivka;Lutovinivka,Lutovinovka,Lutovynivka,Лутовиновка,Лутовинівка;49.23726;33.9051;P;PPL;UA;;18;704569;;;2000;;82;Europe/Kiev;2013-07-14;Ukraine;49.23726, 33.9051
703646;Kurakhovo;Kurakhovo;Kurakhovo,Kurakhovstroy,Novo-Ulakly,Petrovka,Курахово;47.98522;37.2821;P;PPL;UA;;05;;;;20700;;132;Europe/Kiev;2012-01-18;Ukraine;47.98522, 37.2821
704055;Kryva;Kryva;Kriva,Krivaya,Krivoye,Kryva,Nagykirva,Tiszakirva,Крива;48.17234;23.23647;P;PPL;UA;;25;;;;2911;;163;Europe/Uzhgorod;2012-11-27;Ukraine;48.17234, 23.23647
707281;Kacha;Kacha;Aleksandro-Mikhaylovka,Kacha,Кача;44.77635;33.54387;P;PPL;UA;;20;;;;5000;;28;Europe/Simferopol;2012-01-18;Ukraine;44.77635, 33.54387
707489;Ivankiv;Ivankiv;Ivankiv,Ivankov,Iwankow,Іванків,Иванків;50.93865;29.89426;P;PPLA2;UA;;13;;;;10170;;138;Europe/Kiev;2014-10-01;Ukraine;50.93865, 29.89426
708351;Horodyshche;Horodyshche;Gorodishche,Gorodishhe,Gorodyshche,Horodyshche,Horodyszcze,Городище;50.63965;26.36573;P;PPL;UA;;19;;;;3757;;209;Europe/Kiev;2013-01-10;Ukraine;50.63965, 26.36573
709428;Dunayivtsi;Dunayivtsi;Dunaivci,Dunayevtsy,Dunayivtsi,Poselok Dunayevtsy,Posëlok Dunayevtsy,Дунаївці;49.02078;26.84122;P;PPLA2;UA;;09;;;;0;;295;Europe/Kiev;2014-09-05;Ukraine;49.02078, 26.84122
710950;Chapayevka;Chapayevka;Chapaehvka,Chapaevka,Chapayevka,Imeni Chapayeva,Imeni Tovarishcha Chapayeva,Чапаевка,Чапаэвка,Чапаєвка;47.47114;36.34507;P;PPL;UA;;26;;;;3502;;106;Europe/Zaporozhye;2014-09-05;Ukraine;47.47114, 36.34507
711398;Broska;Broska;Broasca,Broaska,Broska,Броска;45.37327;28.783;P;PPL;UA;;17;;;;3586;;18;Europe/Kiev;2015-01-07;Ukraine;45.37327, 28.783
712332;Berezne;Berezne;Berezne,Berezno,Berëzno,Березне;51.00094;26.75106;P;PPLA2;UA;;19;;;;0;;165;Europe/Kiev;2014-08-06;Ukraine;51.00094, 26.75106
712582;Lyakhovtsy;Lyakhovtsy;Belogor'ye,Belogor’ye,Bilogir'ja,Bilohirya,Bilohir”ya,Lyakhovtsy,Білогір’я;50.00263;26.42824;P;PPLA2;UA;;09;;;;0;;243;Europe/Kiev;2014-09-05;Ukraine;50.00263, 26.42824
829788;Narkevychi;Narkevychi;Narkevici,Narkevychi,Yasne,Наркевичі;49.51717;26.64178;P;PPL;UA;;09;;;;1631;;305;Europe/Kiev;2012-01-19;Ukraine;49.51717, 26.64178
613273;Lebedyn;Lebedyn;Lebedin,Lebedyn,Лебедин;50.58518;34.4849;P;PPLA2;UA;;21;;;;27695;;122;Europe/Kiev;2014-07-08;Ukraine;50.58518, 34.4849
688154;Yemil’chyne;Yemil'chyne;Emil'chine,Emil'chino,Emil’chino,Yelmicheno,Yemil'chino,Yemil'chyne,Yemil’chino,Yemil’chyne,Ємільчине;50.87349;27.80604;P;PPLA2;UA;;27;;;;0;;201;Europe/Kiev;2014-10-01;Ukraine;50.87349, 27.80604
688878;Voyutychi;Voyutychi;Vojutichi,Voyutichi,Voyutyche,Voyutychi,Воютичи,Воютичі;49.54945;23.11275;P;PPL;UA;;15;;;;2099;;294;Europe/Kiev;2013-02-16;Ukraine;49.54945, 23.11275
689037;Vorokhta;Vorokhta;Vorokhta,Worochta,Ворохта;48.28459;24.56536;P;PPL;UA;;06;;;;3853;;746;Europe/Kiev;2012-06-06;Ukraine;48.28459, 24.56536
689304;Vovchans’k;Vovchans'k;Volchansk,Vovchans'k,Vovchans’k,Woltschansk,Вовчанськ,Волчанск;50.29078;36.94108;P;PPLA2;UA;;07;;;;19486;;111;Europe/Kiev;2014-12-03;Ukraine;50.29078, 36.94108
689945;Verenchanka;Verenchanka;Varentsyantsa,Verenchanka,Vranceni,Vryncheny,Vrânceni,Веренчанка;48.54653;25.74533;P;PPL;UA;;03;;;;3560;;218;Europe/Kiev;2012-01-18;Ukraine;48.54653, 25.74533
690038;Velyka Mykhaylivka;Velyka Mykhaylivka;Grosulovo,Prosulovo,Velika Mihajlivka,Velika Mikhajlivka,Velikaya Mikhalovka,Velikaya Mikhaylovka,Velyka Mykhaylivka,Велика Михайлівка;47.07971;29.85753;P;PPLA2;UA;;17;;;;5777;;48;Europe/Kiev;2014-11-05;Ukraine;47.07971, 29.85753
690132;Velykyy Klyuchiv;Velykyy Klyuchiv;Klyuchev,Klyuchev Vel'kiy,Klyuchev Vel’kiy,Klyuchov,Klyuchuv Vel'ki,Klyuchuv Vel’ki,Klyuchëv,Velikij Kljuchiv,Velikij Kluciv,Velikiy Klyuchev,Velykyy Klyuchiv,Великий Ключів;48.47092;24.94677;P;PPL;UA;;06;;;;3290;;378;Europe/Kiev;2012-06-06;Ukraine;48.47092, 24.94677
690469;Varva;Varva;Varva,Варва;50.49503;32.71968;P;PPLA2;UA;;02;;;;8549;;128;Europe/Kiev;2014-11-05;Ukraine;50.49503, 32.71968
690688;Uman’;Uman';Uman',Uman’,Умань;48.74838;30.22184;P;PPLA2;UA;;01;;;;87658;;215;Europe/Kiev;2014-11-05;Ukraine;48.74838, 30.22184
691305;Trypillia;Trypillia;Tripillja,Tripilya,Tripol'e,Tripolye,Trypillia,Триполье,Трипілля;50.11802;30.78141;P;PPL;UA;;13;;;;3000;;132;Europe/Kiev;2014-01-09;Ukraine;50.11802, 30.78141
691331;Tr’okhizbenka;Tr'okhizbenka;Tr'okhizbenka,Trekhizbenka,Trëkhizbenka,Tr’okhizbenka,Трехизбенка,Трьохізбенка;48.75751;38.96333;P;PPL;UA;;14;;;;2054;;49;Europe/Zaporozhye;2015-04-29;Ukraine;48.75751, 38.96333
691639;Ternuvate;Ternuvate;Ternovatoe,Ternovatoye,Ternuvate,Терноватое,Тернувате;47.83049;36.12761;P;PPL;UA;;26;;;;1510;;154;Europe/Zaporozhye;2014-09-05;Ukraine;47.83049, 36.12761
692487;Storozhynets’;Storozhynets';Storojinet,Storozhinec',Storozhinets,Storozhynets',Storozhynets’,Сторожинець;48.1643;25.72029;P;PPLA2;UA;;03;;;;0;;368;Europe/Kiev;2014-10-01;Ukraine;48.1643, 25.72029
693044;Spas;Spas;Spas,Спас;48.88992;24.06293;P;PPL;UA;;06;;;;2976;;423;Europe/Kiev;2012-06-06;Ukraine;48.88992, 24.06293
693284;Sokyryany;Sokyryany;Secureni,Secureni Targ,Secureni Târg,Sekiryany,Sekuren',Sekureni,Sekuren’,Sekuryany,Sokirjani,Sokiryany,Sokyryany,Сокиряни;48.44747;27.41678;P;PPLA2;UA;;03;;;;9877;;223;Europe/Kiev;2014-10-01;Ukraine;48.44747, 27.41678
693953;Sholokhove;Sholokhove;Sholokhove,Sholokhovo,Шолохове;47.69453;34.03119;P;PPL;UA;;04;;;;3097;;31;Europe/Kiev;2012-01-18;Ukraine;47.69453, 34.03119
694382;Shakhtars’k;Shakhtars'k;Katyk,Shakhtars'k,Shakhtars’k,Shakhtersk,Shakhtërsk,Zapadno-Gruppskiy,Шахтарськ,Шахтерск;48.05657;38.43826;P;PPLA2;UA;;05;;;;71700;;227;Europe/Kiev;2014-12-03;Ukraine;48.05657, 38.43826
694712;Syedove;Syedove;Imeni G. Ya. Sedova,Imeni Sedova,Imeni Sedova G. Ya.,Krivaya Kosa,Sedova,Sedove,Sedovo,Sehdove,Syedove,Седово,Сэдове,Сєдове;47.07678;38.15602;P;PPL;UA;;05;;;;2667;;2;Europe/Kiev;2014-08-06;Ukraine;47.07678, 38.15602
696582;Pomoryany;Pomoryany;Pomorjani,Pomoryany,Pomorzany,Pomorzhany,Поморяни;49.64092;24.9307;P;PPL;UA;;15;;;;1449;;323;Europe/Kiev;2013-01-10;Ukraine;49.64092, 24.9307
697126;Plakhtiyivka;Plakhtiyivka;Kletereshti,Plahteevca,Plahtiivka,Plakhteyevka,Plakhtiivka,Plakhtiyevka,Plakhtiyivka,Плахтіївка;46.1006;29.72169;P;PPL;UA;;17;;;;5038;;41;Europe/Kiev;2015-02-06;Ukraine;46.1006, 29.72169
697537;Pishchanka;Pishchanka;Peschanka,Peschanki,Pischanka,Pishchanka,Pishhanka,Піщанка;48.20727;28.88607;P;PPLA2;UA;;23;;;;0;;228;Europe/Kiev;2014-10-01;Ukraine;48.20727, 28.88607
698866;Novyi Svit;Novyi Svit;Novyi Svit,Novyj Svet,Novyy Svet,Novyy Svit,Новый Свет;44.83087;34.9137;P;PPL;UA;;11;;;;1093;;39;Europe/Simferopol;2012-05-30;Ukraine;44.83087, 34.9137
699034;Novovorontsovka;Novovorontsovka;Novaya Vorontsovka,Novovoroncovka,Novovorontsovka,Нововоронцовка;47.50035;33.91748;P;PPLA2;UA;;08;;;;6847;;86;Europe/Kiev;2014-12-03;Ukraine;47.50035, 33.91748
699823;Nova Mayachka;Nova Mayachka;Bol'shaya Mayachka,Bol’shaya Mayachka,Nova Majachka,Nova Mayachka,Novaja Majachka,Novaya Mayachka,Нова Маячка,Новая Маячка;46.59996;33.22707;P;PPL;UA;;08;;;;7238;;13;Europe/Kiev;2015-01-07;Ukraine;46.59996, 33.22707
701291;Velyki Mezhyrichi;Velyki Mezhyrichi;Mendzyzhech,Menzhirichi,Mezherichi,Mezhirichi,Mezhirichi-Koretskiye,Miedzyrzecz,Międzyrzecz,Veliki Mezhirichi,Velikie Mezhirichi,Velikiye Mezhirichi,Velyki Mezhyrichi,Великие Межиричи,Великі Межирічі;50.65431;26.86626;P;PPL;UA;;19;;;;2192;;202;Europe/Kiev;2013-02-16;Ukraine;50.65431, 26.86626
703455;Kvasy;Kvasy;Kvasi,Kvasy,Tiszaborkut,Tiszaborkút,Кваси,Квасы;48.14973;24.27995;P;PPL;UA;;25;;;;1200;;532;Europe/Uzhgorod;2012-06-06;Ukraine;48.14973, 24.27995
704000;Krolevets’;Krolevets';Korolevets,Krolevec,Krolevec',Krolevets,Krolevets',Krolevets’,Krolovets,Кролевец,Кролевець;51.54775;33.38475;P;PPLA2;UA;;21;;;;24115;;166;Europe/Kiev;2014-11-05;Ukraine;51.54775, 33.38475
704402;Krasnodon;Krasnodon;Krasnodon,Krasnodonskiy,Краснодон;48.31245;39.56284;P;PPL;UA;;14;;;;5787;;184;Europe/Zaporozhye;2014-08-06;Ukraine;48.31245, 39.56284
705524;Kobyzhcha;Kobyzhcha;Kobizhcha,Kobyzhcha,Kobyzhchi,Кобижча,Кобыжча;50.82854;31.50439;P;PPL;UA;;02;;;;4332;;131;Europe/Kiev;2012-10-07;Ukraine;50.82854, 31.50439
705812;Kirovohrad;Kirovohrad;Elizavetgrad,Gorad Kiravagrad,KGO,Kirovo,Kirovograd,Kirovohrad,Kirovohradas,Kirovohrado,Kirovoqrad,Kirowo,Kirowograd,Kirowohrad,Sinowjewsk,Yelizavetgrad,Yelizavety,Zinov'evsk,Zinov'yevsk,Zinovievsk,Zinov’evsk,Zinov’yevsk,ji luo wo ge lei,kiloboheuladeu,kirovu~ofurado,kyrwwhrad,qyrwbwgrd,Горад Кіраваград,Кировоград,Кіровоград,Կիրովոգրադ,קירובוגרד,کیرووهراد,کیرووہراد,კიროვოგრადი,キロヴォフラード,基洛沃格勒,키로보흐라드;48.5132;32.2597;P;PPLA;UA;;10;;;;249454;;114;Europe/Kiev;2014-11-05;Ukraine;48.5132, 32.2597
708585;Holovanivs’k;Holovanivs'k;Golovanevsk,Golovanivs'k,Golvanevsk,Holovanivs'k,Holovanivs’k,Голованевск,Голованівськ;48.384;30.46131;P;PPLA2;UA;;10;;;;0;;174;Europe/Kiev;2014-11-05;Ukraine;48.384, 30.46131
709248;Fastiv;Fastiv;Fastiv,Fastiw,Fastov,Fastow,Fastów,fa si di fu,fastyw,pstwb,Фастив,Фастов,Фастів,Ֆաստով,כוואסטוב,פסטוב,فاستیو,法斯蒂夫;50.0767;29.9177;P;PPLA2;UA;;13;Fastiv Raion (undefined);;;51143;;208;Europe/Kiev;2014-10-01;Ukraine;50.0767, 29.9177
709717;Donetsk;Donetsk;DOK,Donec'k,Doneck,Doneck khot,Donecka,Doneckas,Donecko,Donetk,Donetsk,Donezk,Donețk,Donieck,Donietsk,Donjeck,Doněck,Doņecka,Gorad Daneck,Hughesovka,Jusowka,Juzovka,Ntonetsk,Stalin,Staline,Stalino,Uzivka,Yuzovka,Yuzovo,do net skh,donecheukeu,donetska,donetsu~iku,dun nie ci ke,dwntsk,dwnytsk,dwnzq,tonetsk,Ντονέτσκ,Горад Данецк,Донецк,Донецк хот,Донецьк,Доњецк,Сталино,Сталіне,Сталіно,Юзовка,Юзівка,Դոնեցկ,דונצק,دونتسک,دونيتسك,دونیتسک,دۆنێتسک,दोनेत्स्क,தோனெத்ஸ்க்,โดเนตสค์,დონეცკი,ドネツィク,頓涅茨克,도네츠크;48.023;37.80224;P;PPLA;UA;;05;;;;1024700;;223;Europe/Kiev;2014-07-18;Ukraine;48.023, 37.80224
710374;Chuhuyiv;Chuhuyiv;Chuguev,Chuguiv,Chuguyev,Chuhuyiv,Cuguiv,Tschugujew,Чугуев,Чугуїв;49.83588;36.68803;P;PPLA2;UA;;07;;;;36519;;133;Europe/Kiev;2014-06-26;Ukraine;49.83588, 36.68803
710381;Chudniv;Chudniv;Chudniv,Chudnov,Cudniv,Tschudnow,Чуднів;50.05204;28.11745;P;PPLA2;UA;;27;;;;6314;;246;Europe/Kiev;2014-10-01;Ukraine;50.05204, 28.11745
710554;Chervonohrad;Chervonohrad;Cervonohrad,Chervonograd,Chervonohrad,Czerwonohrad,Krasnipali,Krisnipolye,Kristinopol',Kristinopol’,Krvstonopol,Krystynopol,Червоноград;50.39105;24.23514;P;PPL;UA;;15;;;;83000;;195;Europe/Kiev;2014-08-06;Ukraine;50.39105, 24.23514
710719;Chernivtsi;Chernivtsi;CWC,Cernauti,Cernivci,Cernivciai,Cernivco,Cernivtsi,Cernovci,Cernovice,Cernăuţi,Cernăuți,Charnaucy,Chernivci,Chernivtsi,Chernovci,Chernovcy,Chernovits,Chernovitsy,Chernovtsy,Csernyivci,Czerniowce,Czernovicum,Czernowitz,Tchernivtsi,Tjernivtsi,Tschernowitz,Tsernivtsi,Tsjernivtsi,Txernivtsi,Txernivtsí,Tšernivtsi,cheleuniuchi,chernovtsi,cheruniutsu~i,chrnywtsy,qie er nuo fu ce,zrnwbyz,Çernivtsi,Çernivçı,Ĉernivco,Černivci,Černivciai,Černovci,Černovice,Чарнаўцы,Чернивци,Черновци,Черновцы,Чернівці,Чернівцї,Չեռնովցի,טשערנאוויץ,צרנוביץ,چرنیوتسی,ჩერნოვცი,チェルニウツィー,切爾諾夫策,체르니우치;48.29149;25.94034;P;PPLA;UA;;03;;;;236250;;228;Europe/Kiev;2013-12-01;Ukraine;48.29149, 25.94034
711635;Borodyanka;Borodyanka;Borodjanka,Borodyanka,Бородянка;50.64484;29.9201;P;PPLA2;UA;;13;;;;12069;;139;Europe/Kiev;2014-10-01;Ukraine;50.64484, 29.9201
711660;Boryspil’;Boryspil';Borispil',Borispilo,Borispol',Borispol’,Boryspil,Boryspil',Boryspil’,Boryspol,borisupiri,Борисполь,Бориспіль,ボリスピリ;50.35269;30.95501;P;PPLA2;UA;;13;;;;55000;;113;Europe/Kiev;2014-10-01;Ukraine;50.35269, 30.95501
712967;Bakhmach;Bakhmach;Bachmatsch,Bakhmach,Bakhmach Romenskiy,Бахмач;51.18144;32.83463;P;PPL;UA;;02;;;;23379;;144;Europe/Kiev;2012-10-07;Ukraine;51.18144, 32.83463
712992;Baherove;Baherove;Bagarovo,Bagerove,Bagerovo,Baherove,Багерове,Багерово;45.37417;36.29705;P;PPL;UA;;11;;;;4382;;85;Europe/Simferopol;2015-03-08;Ukraine;45.37417, 36.29705
796868;Mikhaylovka;Mikhaylovka;Mikhaylovka,Mykhaylivka;45.2831;36.25922;P;PPL;UA;;11;;;;3352;;49;Europe/Simferopol;2015-03-08;Ukraine;45.2831, 36.25922
865087;Teplodar;Teplodar;Teplodar,Теплодар;46.50585;30.32521;P;PPL;UA;;17;;;;8502;;78;Europe/Kiev;2015-02-07;Ukraine;46.50585, 30.32521
6559559;Komsomolsk;Komsomolsk;Komsomol's'k,Komsomol'sk,Комсомольск,Комсомольськ;49.01018;33.63567;P;PPLA2;UA;;18;;;;51740;;69;Europe/Kiev;2013-05-20;Ukraine;49.01018, 33.63567
7280677;Denyshi;Denyshi;Denishi,Denyshi,Дениші,Деныши;50.21415;28.40395;P;PPL;UA;;27;;;;1164;;210;Europe/Kiev;2010-03-07;Ukraine;50.21415, 28.40395
686729;Vasylivka;Vasylivka;Vasil'yevka,Vasilevka,Vasilivka,Vasil’yevka,Vasylivka,Василівка;47.43694;35.27417;P;PPLA2;UA;;26;;;;15012;;39;Europe/Zaporozhye;2014-12-03;Ukraine;47.43694, 35.27417
688022;Yur”yivka;Yuryivka;Jur'evka,Yuryivka,Yur'yevka,Yur'yivka,Yur’yevka,Yur”yivka,Юрьевка;48.73748;36.01987;P;PPLA2;UA;;04;;;;0;;77;Europe/Kiev;2014-06-05;Ukraine;48.73748, 36.01987
688663;Vyshchetarasivka;Vyshchetarasivka;Tarasovka,Velikaya Tarasovka,Verkhne-Tarasovka,Verkhnyaya Tarasovka,Visetarasivka,Vyshchetarasivka,Vyshchevtarasivka,Vyshetarasovka,Vysshetarasovka,Вищетарасівка;47.56851;34.88096;P;PPL;UA;;04;;;;3651;;31;Europe/Kiev;2012-01-18;Ukraine;47.56851, 34.88096
689151;Volodars’ke;Volodars'ke;Kal'chik,Kal’chik,Voladarskoye,Volodars'ke,Volodarskoe,Volodarskoye,Volodars’ke,Володарское,Володарське;47.20533;37.32139;P;PPLA2;UA;;05;;;;0;;124;Europe/Kiev;2014-12-03;Ukraine;47.20533, 37.32139
689157;Volodarka;Volodarka;Volodarka,Володарка;49.52484;29.91222;P;PPLA2;UA;;13;;;;7355;;172;Europe/Kiev;2014-10-01;Ukraine;49.52484, 29.91222
689868;Verkhniy Rohachyk;Verkhniy Rohachyk;Verhnij Rogacik,Verkhnij Rogachik,Verkhniy Rogachik,Verkhniy Rohachyk,Верхній Рогачик;47.25053;34.33797;P;PPLA2;UA;;08;;;;6557;;54;Europe/Kiev;2014-12-03;Ukraine;47.25053, 34.33797
690032;Vendychany;Vendychany;Bendichany,Vendichani,Vendichany,Vendychany,Вендичани;48.61176;27.79324;P;PPL;UA;;23;;;;4182;;234;Europe/Kiev;2012-01-18;Ukraine;48.61176, 27.79324
690035;Velykoploske;Velykoploske;Bol'shoye Ploskoye,Bol’shoye Ploskoye,Ploskoye,Velikoploske,Velikoploskoye,Velykoploske,Великоплоске;47.01254;29.67171;P;PPL;UA;;17;;;;3192;;181;Europe/Kiev;2012-02-02;Ukraine;47.01254, 29.67171
690411;Vasyl’kivka;Vasyl'kivka;Vasil'kivka,Vasil'kovka,Vasil’kovka,Vasyl'kivka,Vasyl’kivka,Wassilkowka,Васильковка,Васильківка;48.20698;36.02365;P;PPLA2;UA;;04;;;;0;;77;Europe/Kiev;2014-12-03;Ukraine;48.20698, 36.02365
690875;Tysmenychany;Tysmenychany;Tismenichani,Tysmenichany,Tysmenychany,Тисменичани;48.77168;24.66626;P;PPL;UA;;06;;;;2944;;316;Europe/Kiev;2012-01-18;Ukraine;48.77168, 24.66626
691336;Trebukhiv;Trebukhiv;Trebuhiv,Trebukhiv,Trebukhov,Trebukhovo,Требухов,Требухів;50.48432;30.90304;P;PPL;UA;;13;;;;6207;;114;Europe/Kiev;2013-05-08;Ukraine;50.48432, 30.90304
691365;Torkanivka;Torkanivka;Tarkanovka,Torkanovka,Торкановка;48.32462;29.14746;P;PPL;UA;;23;;;;1061;;207;Europe/Kiev;2013-11-05;Ukraine;48.32462, 29.14746
692122;Svarychiv;Svarychiv;Svarichiv,Svarichov,Svariciv,Svarychev,Svarychiv,Svarychuv,Сваричів;48.9622;24.19658;P;PPL;UA;;06;;;;4845;;341;Europe/Kiev;2012-06-06;Ukraine;48.9622, 24.19658
692233;Sukhovolya;Sukhovolya;Sukhovolja,Sukhovolya,Суховоля;49.82426;23.8377;P;PPL;UA;;15;;;;3612;;301;Europe/Kiev;2012-01-18;Ukraine;49.82426, 23.8377
694290;Shcherbynivka;Shcherbynivka;Serbinivka,Shcherbinovka,Shcherbynivka,Shherbinivka,Щербинівка;48.39489;37.79102;P;PPL;UA;;05;;;;3868;;101;Europe/Kiev;2014-06-05;Ukraine;48.39489, 37.79102
695307;Rozivka;Rozivka;Rozivka,Rozovka,Розівка;46.9394;35.77207;P;PPL;UA;;26;;;;4197;;73;Europe/Zaporozhye;2015-12-06;Ukraine;46.9394, 35.77207
695320;Rozhniv;Rozhniv;Rozhnev,Rozhniv,Rozhnov,Rozhnyuv,Rozniv,Roznov,Roznow,Rożnów,Рожнів;48.36597;25.2258;P;PPL;UA;;06;;;;5351;;282;Europe/Kiev;2012-01-18;Ukraine;48.36597, 25.2258
695594;Rivne;Rivne;Eractum,Gorad Rouna,RWN,Rivne,Rivno,Rivnė,Riwne,Rovno,Rowne,Ruvne,Równe,liune,luo fu nuo,riune,rovno,rwbnw,rwfnw,rywn,rywnh,Горад Роўна,Ровно,Рівне,Ռովնո,ראוונע,רובנו,روفنو,ریون,ریونه,როვნო,リウネ,羅夫諾,리우네;50.62308;26.22743;P;PPLA;UA;;19;;;;255106;;207;Europe/Kiev;2013-05-05;Ukraine;50.62308, 26.22743
697543;Peschana;Peschana;;48.12918;29.73086;P;PPL;UA;;17;;;;3094;;114;Europe/Kiev;2011-08-08;Ukraine;48.12918, 29.73086
697739;Perehonivka;Perehonivka;Peregonivka,Peregonovka,Perehonivka,Перегоновка,Перегонівка;48.53552;30.51923;P;PPL;UA;;10;;;;3354;;118;Europe/Kiev;2012-01-18;Ukraine;48.53552, 30.51923
698927;Novi Sanzhary;Novi Sanzhary;Nov.Sanzhary,Novi Sanzari,Novi Sanzhari,Novi Sanzhary,Novi Senzhari,Novo-Senzhary,Novyye Sanzhary,Novyye Senzhary,Нов.Санжары,Нові Санжари;49.34395;34.31084;P;PPLA2;UA;;18;;;;8020;;77;Europe/Kiev;2014-12-03;Ukraine;49.34395, 34.31084
701299;Volovo;Volovo;Mezhgor'e,Mezhgor'ye,Mezhgor’ye,Mizhgir'ja,Mizhhirya,Mizhhir'ya,Mizhhir”ya,Volove,Volovets,Volovo,Volové,Межгорье,Міжгір’я;48.52458;23.50563;P;PPLA2;UA;;25;;;;10000;;452;Europe/Uzhgorod;2014-08-06;Ukraine;48.52458, 23.50563
701405;Melioratyvne;Melioratyvne;Meliorativne,Meliorativnoe,Meliorativnoye,Melioratyvne,Мелиоративное,Меліоративне;48.63009;35.41558;P;PPL;UA;;04;;;;4351;;72;Europe/Kiev;2014-09-05;Ukraine;48.63009, 35.41558
702679;Luhyny;Luhyny;Lugini,Luginy,Luhyny,Лугини;51.08203;28.40057;P;PPLA2;UA;;27;;;;4561;;176;Europe/Kiev;2014-10-01;Ukraine;51.08203, 28.40057
702723;Lubny;Lubny;Lubin,Lubni,Lubny,Лубни;50.01625;32.99694;P;PPLA2;UA;;18;;;;52600;;153;Europe/Kiev;2014-12-03;Ukraine;50.01625, 32.99694
703438;Ladan;Ladan;Ladan,Ladin,Ладан;50.51959;32.58178;P;PPL;UA;;02;;;;6719;;155;Europe/Kiev;2014-06-26;Ukraine;50.51959, 32.58178
703448;Kiev;Kiev;Chijv,Civ,Cív,Gorad Kieu,IEV,Kaenugardur,Keju,Kiebo,Kief,Kieu,Kiev,Kiev osh,Kievi,Kievo,Kiew,Kiiev,Kiiv,Kijev,Kijeva,Kijevas,Kijew,Kijow,Kijuw,Kijv,Kijów,Kijůw,Kiova,Kiovia,Kiyev,Kiyiw,Kiëf,Kjiv,Kueyiv,Kyev,Kyiiv,Kyiv,Kyjev,Kyjiv,Kyjiw,Kyèv,Kænugarður,Kíev,Kîev,Küyiv,ji fu,kheiyf,kiefu,kiv,kiva,kiyebha,kiyepeu,kyf,kyiva,kyyf,qyyb,Κίεβο,Горад Кіеў,Кейӳ,Киев,Киев ош,Київ,Кијев,Кыив,Кыйив,Кꙑѥвъ,Կիև,קייב,קיעוו,كىيېۋ,كييف,کیف,کیێڤ,کی‌یف,कीव,क्यीव,কিয়েভ,கீவ்,കീവ്,เคียฟ,ཀིབ།,ကီးယက်မြို့,კიევი,ኪየቭ,キエフ,基輔,키예프;50.45466;30.5238;P;PPLC;UA;;12;;;;2797553;;187;Europe/Kiev;2015-10-08;Ukraine;50.45466, 30.5238
703464;Kuznetsovs’k;Kuznetsovs'k;Kuznecovsk,Kuznetsovs'k,Kuznetsovsk,Kuznetsovs’k,Кузнецовск;51.68333;25.86667;P;PPL;UA;;19;;;;40000;;146;Europe/Kiev;2012-01-18;Ukraine;51.68333, 25.86667
704730;Kostryzhivka;Kostryzhivka;Costrijeni,Kostrizhevka,Kostrizhovka,Kostrizivka,Kostryzhivka,Kostryzhuvka,Kostryzowka,Kostryzówka,Кострижівка;48.65455;25.71316;P;PPL;UA;;03;;;;2768;;159;Europe/Kiev;2012-01-18;Ukraine;48.65455, 25.71316
705034;Kopayhorod;Kopayhorod;Kopajgorod,Kopaygorod,Kopayhorod,Копайгород;48.85917;27.7969;P;PPL;UA;;23;;;;1437;;267;Europe/Kiev;2012-01-18;Ukraine;48.85917, 27.7969
706448;Kherson;Kherson;Cherson,Chersona,Chersonas,Chersoń,Gorad Kherson,H'erson,Herson,Hersono,Herszon,H’erson,Jerson,Jersón,KHE,Kherson,Xerson,he er song,heleuson,heruson,hrswn,khersana,khersoni,khrswn,khyrswn,Ĥersono,Χερσώνα,Горад Херсон,Херсон,Խերսոն,חרסון,خرسون,خيرسون,خیرسون,खेर्सन,ხერსონი,ヘルソン,赫尔松,헤르손;46.65581;32.6178;P;PPLA;UA;;08;;;;320477;;51;Europe/Kiev;2014-12-03;Ukraine;46.65581, 32.6178
706596;Kozachi Laheri;Kozachi Laheri;Kazach'i,Kazach'i Lageri,Kazach’i,Kazach’i Lageri,Kozachi Lageri,Kozachi Laheri,Kozaci Lageri,Казачьи Лагери,Козачі Лагері;46.70372;32.9776;P;PPL;UA;;08;;;;3587;;16;Europe/Kiev;2015-01-07;Ukraine;46.70372, 32.9776
707002;Millerovo;Millerovo;Kamyane,Kam'jane,Kamennoe,Kamennoye,Kam”yane,Millerovo,Каменное,Кам’яне;48.16829;39.16537;P;PPL;UA;;14;;;;3116;;282;Europe/Zaporozhye;2014-08-06;Ukraine;48.16829, 39.16537
707244;Kakhovka;Kakhovka;Kachowka,Kakhovka,Каховка;46.81371;33.48698;P;PPLA2;UA;;08;;;;36816;;29;Europe/Kiev;2014-12-03;Ukraine;46.81371, 33.48698
707679;Ilovays’k;Ilovays'k;Ilovaiskaia,Ilovajsk,Ilovays'k,Ilovayskaya,Ilovays’k,Иловайск;47.92498;38.20235;P;PPL;UA;;05;;;;17621;;194;Europe/Kiev;2012-01-18;Ukraine;47.92498, 38.20235
707840;Husyatyn;Husyatyn;Gusjatin,Gusyatin,Husiatyn,Husyatyn,Гусятин;49.07263;26.2141;P;PPLA2;UA;;22;;;;6481;;227;Europe/Kiev;2014-09-05;Ukraine;49.07263, 26.2141
708324;Horodnytsya;Horodnytsya;Gorodnicja,Gorodnitsa,Horodnytsya,Городниця;50.80697;27.31676;P;PPL;UA;;27;;;;5238;;196;Europe/Kiev;2013-02-08;Ukraine;50.80697, 27.31676
708901;Haysyn;Haysyn;Gaisin,Gaissin,Gajsin,Gaysin,Haysyn,Гайсин;48.81143;29.38977;P;PPLA2;UA;;23;;;;24687;;210;Europe/Kiev;2014-10-01;Ukraine;48.81143, 29.38977
709516;Dubove;Dubove;Dombo,Dombó,Dubove,Dubovoye,Дубове;48.17205;23.88954;P;PPL;UA;;25;;;;8902;;383;Europe/Uzhgorod;2012-06-06;Ukraine;48.17205, 23.88954
709900;Dobropillya;Dobropillya;Dobropillja,Dobropillya,Dobropol'e,Dobropol'ye,Dobropol’ye,Krasnoarmeyskiy Rudnik,Доброполье,Добропілля;48.46147;37.08524;P;PPLA2;UA;;05;;;;35977;;183;Europe/Kiev;2014-07-08;Ukraine;48.46147, 37.08524
710007;Dmytrivka;Dmytrivka;Dmitrievka,Dmitrivka,Dmitriyevka,Dmitrovka,Dmytrivka,Дмитровка,Дмитрівка;47.93611;38.93661;P;PPL;UA;;05;;;;3170;;51;Europe/Kiev;2014-08-06;Ukraine;47.93611, 38.93661
710071;Desna;Desna;Desna,Десна;50.92731;30.76048;P;PPL;UA;;02;;;;6906;;115;Europe/Kiev;2014-06-26;Ukraine;50.92731, 30.76048
710408;Chopovychi;Chopovychi;Chapovichi,Chepovichi,Chopovichi,Chopovychi,Copovici,Чоповичі;50.83325;28.95334;P;PPL;UA;;27;;;;2183;;168;Europe/Kiev;2012-09-06;Ukraine;50.83325, 28.95334
710755;Chernelytsya;Chernelytsya;Chernelicja,Chernelitsa,Chernelitse,Chernelytsya,Czernelica,Чернелиця;48.81207;25.42477;P;PPL;UA;;06;;;;1809;;305;Europe/Kiev;2012-01-18;Ukraine;48.81207, 25.42477
711459;Bratslav;Bratslav;Braclav,Bratslav,Brazlaw,Брацлав;48.82257;28.9407;P;PPL;UA;;23;;;;5819;;215;Europe/Kiev;2012-01-18;Ukraine;48.82257, 28.9407
712165;Bila Tserkva;Bila Tserkva;Belaja Cerkov',Belaja Zerkow,Belaya Tserkov',Belaya Tserkov’,Biala Cerkiew,Biała Cerkiew,Bila Cerkva,Bila Cerkwa,Bila Terkva,Bila Tserkva,Bila Zerkwa,Bila Țerkva,Shura Chirky,bai cai er ke wei,billacheleukeuba,byla tsrkfa,byla tsyrkfa,bylh zrqwwh,Белая Церковь,Била Церква,Біла Церква,Шурă Чиркÿ,Բելայա Ցերկով,בילה צרקווה,שווארצע טומאה,بيلا تسيركفا,بیلا تسرکفا,ბილა-ცერკვა,ビーラ・ツェールクヴァ,白采尔科维,빌라체르크바;49.80939;30.11209;P;PPLA2;UA;;13;;;;199163;;178;Europe/Kiev;2014-10-01;Ukraine;49.80939, 30.11209
712250;Bershad’;Bershad';Berschad,Bershad',Bershad’,Бершадь;48.36782;29.51726;P;PPLA2;UA;;23;;;;0;;171;Europe/Kiev;2014-10-01;Ukraine;48.36782, 29.51726
713055;Babanka;Babanka;Babanka,Babynka,Бабанка;48.70971;30.44827;P;PPL;UA;;01;;;;2460;;151;Europe/Kiev;2012-01-18;Ukraine;48.70971, 30.44827
6930327;Славутич;Slavutich;Slavutich,Slavutych,Славутич;51.51964;30.73434;P;PPL;UA;;13;;;;25000;;136;Europe/Kiev;2013-03-16;Ukraine;51.51964, 30.73434
7525990;Yuzhnoukrains'k;Yuzhnoukrains'k;Juzhnoukrains'k,Juzhnoukrainsk,Южноукраинск,Южноукраїнськ;47.81777;31.18263;P;PPL;UA;;16;;;;39430;;87;Europe/Kiev;2010-10-21;Ukraine;47.81777, 31.18263
8521509;Kirove;Kirove;Kirovo,Кирово;50.3689;31.12066;P;PPL;UA;;13;;;;1605;;103;Europe/Kiev;2013-04-24;Ukraine;50.3689, 31.12066
686803;Zvenyhorodka;Zvenyhorodka;Zvenigorodka,Zvenyhorodka,Звенигородка;49.07866;30.96755;P;PPLA2;UA;;01;;;;19161;;158;Europe/Kiev;2014-11-05;Ukraine;49.07866, 30.96755
686919;Znomenka;Znomenka;Snamenka,Znamyanka,Znam'janka,Znamenka,Znamenka Pervaya,Znam”yanka,Znomenka,Знаменка,Знам’янка;48.71278;32.66472;P;PPLA2;UA;;10;;;;28318;;202;Europe/Kiev;2014-11-05;Ukraine;48.71278, 32.66472
688625;Yabluniv;Yabluniv;Abluniv,Jablonow,Jabluniv,Jabłonów,Yablonov,Yablonuv,Yabluniv,Яблунів;48.40418;24.93874;P;PPL;UA;;06;;;;1798;;351;Europe/Kiev;2012-06-06;Ukraine;48.40418, 24.93874
689531;Vynohradove;Vynohradove;Chalbasy,Vinogradnoye,Vinogradove,Vinogradovo,Vynohradove,Виноградове,Виноградово;46.36957;32.9398;P;PPL;UA;;08;;;;4422;;39;Europe/Kiev;2015-01-07;Ukraine;46.36957, 32.9398
690509;Valky;Valky;Valki,Valky,Валки;49.83597;35.61223;P;PPLA2;UA;;07;;;;10099;;138;Europe/Kiev;2014-12-03;Ukraine;49.83597, 35.61223
690545;Uzyn;Uzyn;Uzin,Uzyn,Узин;49.82619;30.41487;P;PPL;UA;;13;;;;12726;;179;Europe/Kiev;2014-06-26;Ukraine;49.82619, 30.41487
690890;Tynne;Tynne;Tinne,Tynne,Tynnoye,Тинне;50.60145;26.18486;P;PPL;UA;;19;;;;4123;;216;Europe/Kiev;2013-01-10;Ukraine;50.60145, 26.18486
691051;Tsybulevka;Tsybulevka;Cibulevka,Tsybulevka,Цибулевка;48.38719;29.10288;P;PPL;UA;;23;;;;1888;;199;Europe/Kiev;2012-01-18;Ukraine;48.38719, 29.10288
691052;Tsybli;Tsybli;Cibli,Tsybli,Циблі;49.99484;31.56281;P;PPL;UA;;13;;;;3512;;112;Europe/Kiev;2012-01-18;Ukraine;49.99484, 31.56281
692742;Stari Kuty;Stari Kuty;Kuty Stare,Kuty Stary,Kuty Staryye,Stari Kuti,Stari Kuty,Staryye Kuty,Старі Кути;48.27093;25.17293;P;PPL;UA;;06;;;;5068;;347;Europe/Kiev;2012-01-18;Ukraine;48.27093, 25.17293
693796;Synel’nykove;Synel'nykove;Sinel'nikove,Sinel'nikovo,Sinel’nikovo,Synel'nykove,Synel’nykove,Синельникове,Синельниково;48.32044;35.51792;P;PPLA2;UA;;04;;;;31900;;171;Europe/Kiev;2014-07-08;Ukraine;48.32044, 35.51792
693942;Shostka;Shostka;Schostka,Shostka,Шостка;51.86296;33.4698;P;PPLA2;UA;;21;;;;85432;;154;Europe/Kiev;2014-11-05;Ukraine;51.86296, 33.4698
694498;Serebriya;Serebriya;Serebria,Serebriya,Серебрія;48.45593;27.71923;P;PPL;UA;;23;;;;2906;;77;Europe/Kiev;2012-01-18;Ukraine;48.45593, 27.71923
694992;Rzhyshchiv;Rzhyshchiv;Rzhishchev,Rzhishchëv,Rzhishhev,Rzhyshchiv,Rzisiv,Ржищев,Ржищів;49.96886;31.04628;P;PPL;UA;;13;;;;7993;;90;Europe/Kiev;2014-06-26;Ukraine;49.96886, 31.04628
695026;Rykhtichi;Rykhtichi;Rihtici,Rikhtichi,Rikhtsitse,Rychcice,Rykhtichi,Rykhtsitse,Rykhtychi,Рихтичі;49.38511;23.55662;P;PPL;UA;;15;;;;3115;;293;Europe/Kiev;2012-01-18;Ukraine;49.38511, 23.55662
695581;Rodyns’ke;Rodyns'ke;Khutor Liman,Krasnyy Liman,Liman,Rodins'ke,Rodinskoe,Rodinskoye,Rodyns'ke,Rodyns’ke,Родинское,Родинське;48.35199;37.20602;P;PPL;UA;;05;;;;11550;;192;Europe/Kiev;2014-06-27;Ukraine;48.35199, 37.20602
697593;Pervomays’k;Pervomays'k;Ol'viopol',Olwiopol,Ol’viopol’,Pervomaisk,Pervomajs'k,Pervomajsk,Pervomays'k,Pervomays’k,Perwomaisk,Первомайск,Первомайськ;48.04433;30.85073;P;PPLA2;UA;;16;;;;70746;;76;Europe/Kiev;2014-11-05;Ukraine;48.04433, 30.85073
698008;Pantayivka;Pantayivka;Pantaevka,Pantaivka,Pantayevka,Pantayivka,Пантаевка,Пантаївка;48.674;32.8841;P;PPL;UA;;10;;;;2918;;182;Europe/Kiev;2014-06-26;Ukraine;48.674, 32.8841
698869;Novyy Starodub;Novyy Starodub;Nov.Starodub,Novij Starodub,Novo-Starodub,Novy Starodub,Novyy Starodub,Нов.Стародуб,Новий Стародуб;48.5158;33.17329;P;PPL;UA;;10;;;;4777;;87;Europe/Kiev;2012-01-18;Ukraine;48.5158, 33.17329
700410;Navariya;Navariya;Navaria,Navarija,Navariya,Навария,Наварія;49.74952;23.92746;P;PPL;UA;;15;;;;1493;;307;Europe/Kiev;2012-01-18;Ukraine;49.74952, 23.92746
701057;Myrnyy;Myrnyy;Mirnij,Mirnyi,Mirnyj,Mirnyy,Myrnyy,Мирний,Мирный;45.30788;33.03501;P;PPL;UA;;11;;;;4052;;5;Europe/Simferopol;2012-12-01;Ukraine;45.30788, 33.03501
702971;Lysychovo;Lysychovo;Lisichevo,Lisichovo,Lysycheve,Lysychovo,Лисичово;48.49677;23.28992;P;PPL;UA;;25;;;;3068;;337;Europe/Uzhgorod;2012-05-06;Ukraine;48.49677, 23.28992
703706;Kulynychi;Kulynychi;Kulinichi,Kulinici,Kulynychi,Кулиничи,Кулиничі;49.98178;36.38283;P;PPL;UA;;07;;;;2981;;144;Europe/Kiev;2014-06-26;Ukraine;49.98178, 36.38283
704048;Kryva Hora;Kryva Hora;Kriva Gora,Krivaja Gora,Krivaya Gora,Kryva Hora,Крива Гора,Кривая Гора;51.38495;30.19978;P;PPLQ;UA;;13;;;;3461;;109;Europe/Kiev;2012-09-06;Ukraine;51.38495, 30.19978
704679;Kotovs’k;Kotovs'k;Birzula,Kotovs'k,Kotovsk,Kotovs’k,Kotowsk,Котовск,Котовськ;47.75305;29.53205;P;PPLA2;UA;;17;;;;40664;;241;Europe/Kiev;2014-11-05;Ukraine;47.75305, 29.53205
704772;Kosmach;Kosmach;Kosmach,Космач;48.75089;24.36731;P;PPL;UA;;06;;;;6204;;479;Europe/Kiev;2012-06-06;Ukraine;48.75089, 24.36731
705016;Kopychyntsi;Kopychyntsi;Kopachintsy,Kopichintsy,Kopicinci,Kopychin'tse,Kopychintsa,Kopychintsy,Kopychin’tse,Kopychyn'tse,Kopychyntsi,Kopychyn’tse,Kopyczynce,Kopyczyńce,Копичинці;49.10441;25.91026;P;PPL;UA;;22;;;;6774;;309;Europe/Kiev;2012-01-18;Ukraine;49.10441, 25.91026
705104;Kostyantynivka;Kostyantynivka;Konstantinovka,Konstantinowka,Kostjantinivka,Kostjantyniwka,Kostyantynivka,Константиновка,Костянтинівка;48.5277;37.7069;P;PPLA2;UA;;05;;;;91259;;87;Europe/Kiev;2014-07-08;Ukraine;48.5277, 37.7069
705183;Komsomol’s’ke;Komsomol's'ke;Komsomol's'ke,Komsomol'skoe,Komsomol'skoye,Komsomol’skoye,Komsomol’s’ke,Комсомольское,Комсомольське;49.59701;36.52618;P;PPL;UA;;07;;;;15825;;99;Europe/Kiev;2014-01-12;Ukraine;49.59701, 36.52618
706200;Khrystynivka;Khrystynivka;Christinowka,Hristinivka,Khristinivka,Khristinovka,Khrystynivka,Kristinovka,Христинівка;48.82488;29.96805;P;PPLA2;UA;;01;;;;14056;;251;Europe/Kiev;2014-11-05;Ukraine;48.82488, 29.96805
707453;Ivanivka;Ivanivka;Ivanivka,Ivanovka,Iwanowka,Іванівка,Ивановка,Иванівка;46.72082;34.55298;P;PPLA2;UA;;08;;;;5036;;37;Europe/Kiev;2015-02-06;Ukraine;46.72082, 34.55298
707744;Ichnya;Ichnya;Ichnja,Ichnya,Itschnja,Malaya Ichnya,Ічня,Ичня;50.86258;32.39425;P;PPLA2;UA;;02;;;;12417;;155;Europe/Kiev;2014-11-05;Ukraine;50.86258, 32.39425
709112;Foros;Foros;Foros,Phoros,Форос;44.39214;33.78798;P;PPL;UA;;11;;;;2185;0;48;Europe/Simferopol;2015-10-05;Ukraine;44.39214, 33.78798
709354;Dzerzhyns’k;Dzerzhyns'k;Dzerzhins'k,Dzerzhinsk,Dzerzhyns'k,Dzerzhyns’k,Imeni Dzerzhinskogo,Дзержинск,Дзержинськ;48.39869;37.84787;P;PPL;UA;;05;;;;41758;;200;Europe/Kiev;2014-06-27;Ukraine;48.39869, 37.84787
709835;Dokuchayevs’k;Dokuchayevs'k;Dokuchaevs'k,Dokuchaevsk,Dokuchayevs'k,Dokuchayevsk,Dokuchayevs’k,Yelenovskiy Kar'yer,Yelenovskiy Kar’yer,Yelenovskiye Kar'yery,Yelenovskiye Kar’yery,Докучаевск,Докучаєвськ;47.75046;37.67936;P;PPL;UA;;05;;;;23900;;158;Europe/Kiev;2014-10-01;Ukraine;47.75046, 37.67936
711359;Bryukhovychi;Bryukhovychi;Brjukhovichi,Bruhovici,Bryukhovichi,Bryukhovychi,Brzuchowice,Bzhukhovitse,Брюховичи,Брюховичі;49.90467;23.95969;P;PPL;UA;;15;;;;5590;;286;Europe/Kiev;2012-01-18;Ukraine;49.90467, 23.95969
712588;Bilohorivka;Bilohorivka;Belogorovka,Bilogorivka,Bilohorivka,Белогоровка,Білогорівка;48.92503;38.24822;P;PPL;UA;;14;;;;1142;;70;Europe/Zaporozhye;2014-06-27;Ukraine;48.92503, 38.24822
712682;Bekhtery;Bekhtery;Bekhteri,Bekhtery,Бехтери;46.2479;32.29123;P;PPL;UA;;08;;;;2909;;7;Europe/Kiev;2014-12-03;Ukraine;46.2479, 32.29123
712895;Balky;Balky;Balki,Balky,Балки;47.38336;34.94396;P;PPL;UA;;26;;;;5717;;73;Europe/Zaporozhye;2012-01-18;Ukraine;47.38336, 34.94396
713163;Artsyz;Artsyz;Archiz,Arcis,Arciz,Arsis,Arsiz,Artsis,Artsiz,Artsyz,Арциз;45.99194;29.41824;P;PPLA2;UA;;17;;;;15761;;17;Europe/Kiev;2014-11-05;Ukraine;45.99194, 29.41824
713676;Aleksandrovka;Aleksandrovka;Aleksandrovka,Oleksandrivka,Roksandrovka,Александровка;46.83826;32.76116;P;PPL;UA;;16;;;;5653;;37;Europe/Kiev;2012-01-18;Ukraine;46.83826, 32.76116
832394;Orikhove;Orikhove;Orekhovo,Orihove,Orikhove,Оріхове;45.12944;33.6318;P;PPL;UA;;11;;;;3000;;20;Europe/Simferopol;2012-01-19;Ukraine;45.12944, 33.6318
7303923;Stepove;Stepove;Stepovoe,Степовое;46.70385;30.07919;P;PPL;UA;;17;;;;1549;;53;Europe/Kiev;2010-07-21;Ukraine;46.70385, 30.07919
687602;Zorya;Zorya;Camcic,Camcicu,Kamchik,Kamchiku,Zarya,Zorja,Zorya,Зоря;45.9908;29.69672;P;PPL;UA;;17;;;;5243;;16;Europe/Kiev;2015-02-06;Ukraine;45.9908, 29.69672
687965;Zabolotiv;Zabolotiv;Zablotov,Zablotow,Zablotuv,Zabolotiv,Zabolotov,Zabłotów,Заболотів;48.47054;25.28571;P;PPL;UA;;06;693362;;;4029;;233;Europe/Kiev;2013-01-25;Ukraine;48.47054, 25.28571
688602;Yahil’nytsya;Yahil'nytsya;Jagel'nica,Jagielnica,Jagil'nicja,Yagel'nitsa,Yagel’nitsa,Yagielnitsa,Yahil'nytsya,Yahil’nytsya,Ягельница,Ягільниця;48.94248;25.74375;P;PPL;UA;;22;;;;1314;;297;Europe/Kiev;2013-02-16;Ukraine;48.94248, 25.74375
688846;Vradiyivka;Vradiyivka;Bol'shaya Vradiyevka,Bol’shaya Vradiyevka,Bradiyevka,Velikaya Vradiyevka,Vradievka,Vradiivka,Vradiyevka,Vradiyivka,Врадіївка;47.86195;30.59195;P;PPLA2;UA;;16;;;;9578;;148;Europe/Kiev;2014-11-05;Ukraine;47.86195, 30.59195
689428;Volodymyrets’;Volodymyrets';Vladimirei,Vladimirets,Vlodzimezhets,Volodimirec',Volodymerets',Volodymerets’,Volodymyrets',Volodymyrets’,Wlodzimierzec,Włodzimierzec,Володимирець;51.4213;26.14469;P;PPLA2;UA;;19;;;;8537;;170;Europe/Kiev;2014-08-06;Ukraine;51.4213, 26.14469
690193;Velykyy Burluk;Velykyy Burluk;Bol'shoy Burluk,Bolshoi Burlak,Bol’shoy Burluk,Velikij Burluk,Velikij Vurluk,Velikiy Burlok,Velikiy Burluk,Velykyy Burluk,Великий Бурлук,Великий Вурлук;50.0617;37.38373;P;PPLA2;UA;;07;;;;4821;;147;Europe/Kiev;2014-12-03;Ukraine;50.0617, 37.38373
690556;Uyutne;Uyutne;Otar-Maynak,Otar-Moynak,Ujutne,Uyutne,Uyutnoye,Уютне;45.19769;33.29796;P;PPL;UA;;11;;;;3710;;14;Europe/Simferopol;2012-01-18;Ukraine;45.19769, 33.29796
690963;Turiys’k;Turiys'k;Turijs'k,Turisk,Turiys'k,Turiysk,Turiys’k,Turzysk,Tuzhisk,Турійськ;51.08644;24.52294;P;PPLA2;UA;;24;;;;0;;180;Europe/Kiev;2014-08-06;Ukraine;51.08644, 24.52294
691097;Tsibulev;Tsibulev;Cibuliv,Tsibulev,Tsybulev,Tsybulevo,Tsybuliev,Tsybuliv,Цибулів;49.07907;29.84727;P;PPL;UA;;01;;;;3751;;228;Europe/Kiev;2012-01-18;Ukraine;49.07907, 29.84727
691444;Tovste;Tovste;Tluste,Tluste Miasto,Tluste Myasto,Tolstoye,Tovste,Товсте;48.84663;25.72621;P;PPL;UA;;22;;;;3382;;282;Europe/Kiev;2012-01-18;Ukraine;48.84663, 25.72621
691526;Tymoshivka;Tymoshivka;Timoshevka,Timoshivka,Timoshovka,Timoshëvka,Timosivka,Tymoshivka,Тимошівка;47.1841;35.11625;P;PPL;UA;;26;;;;2975;;79;Europe/Zaporozhye;2015-12-06;Ukraine;47.1841, 35.11625
692301;Sudova Vyshnya;Sudova Vyshnya;Sadowa Wisznia,Sondova Vishnya,Sudova Vishnja,Sudova Vyshnya,Sudovaya Vishna,Sudovaya Vishnya,Sądowa Wisznia,Wisznia,Судова Вишня;49.78892;23.37218;P;PPL;UA;;15;;;;6420;;216;Europe/Kiev;2013-01-10;Ukraine;49.78892, 23.37218
692465;Strabychovo;Strabychovo;Ctrabichovo,Cтрабичово,Strabichevo,Strabichovo,Strabichëvo,Strabychove,Strabychovo,Страбичово;48.39247;22.54308;P;PPL;UA;;25;;;;3255;;106;Europe/Uzhgorod;2012-04-05;Ukraine;48.39247, 22.54308
693709;Skadovs’k;Skadovs'k;Skadovs'k,Skadovsk,Skadovs’k,Skadowsk,Скадовск,Скадовськ;46.1161;32.91124;P;PPLA2;UA;;08;;;;19404;;6;Europe/Kiev;2015-03-08;Ukraine;46.1161, 32.91124
695559;Rohatyn;Rohatyn;Rogatin,Rohatyn,Рогатин;49.409;24.60927;P;PPLA2;UA;;06;;;;8287;;255;Europe/Kiev;2014-09-05;Ukraine;49.409, 24.60927
695574;Rodnykove;Rodnykove;Rodnikove,Rodnikovo,Rodnikovoye,Rodnykove,Tobe-Chokrak,Родникове;45.04296;33.95407;P;PPL;UA;;11;693803;;;3058;;159;Europe/Simferopol;2014-01-06;Ukraine;45.04296, 33.95407
696204;Pryyutivka;Pryyutivka;Prijutovka,Priutivka,Priyutovka,Pryyutivka,Приютовка,Приютівка;48.72094;33.07078;P;PPL;UA;;10;;;;3238;;107;Europe/Kiev;2013-09-09;Ukraine;48.72094, 33.07078
697568;Pervomays’ke;Pervomays'ke;Chervonoe,Dzhurchi,Pervomajs'ke,Pervomays'ke,Pervomayskoye,Pervomays’ke,Первомайське,Червоное;45.71744;33.85596;P;PPLA2;UA;;11;;;;9014;;29;Europe/Simferopol;2014-12-03;Ukraine;45.71744, 33.85596
698138;Ovidiopol’;Ovidiopol';Ovidiopol,Ovidiopol',Ovidiopol’,Owidiopol,Овидио́поль,Ові́діополь;46.24998;30.44127;P;PPL;UA;;17;;;;11818;12;19;Europe/Kiev;2014-07-13;Ukraine;46.24998, 30.44127
699706;Novooleksiyivka;Novooleksiyivka;Novo-Ukrainka,Novoalekseevka,Novoalekseyevka,Novooleksiivka,Novooleksiyivka,Novyy Gorodok,Новоалексеевка,Новоолексіївка;46.22472;34.64031;P;PPL;UA;;08;;;;9852;;20;Europe/Kiev;2012-01-18;Ukraine;46.22472, 34.64031
699756;Novhorodka;Novhorodka;Novgorodka,Novhorodka,Новгородка;48.36506;32.65785;P;PPLA2;UA;;10;;;;6405;;114;Europe/Kiev;2014-11-05;Ukraine;48.36506, 32.65785
700322;Nemyriv;Nemyriv;Nemiriv,Nemirov,Nemyriv,Немирів;48.97076;28.83779;P;PPLA2;UA;;23;;;;11633;;272;Europe/Kiev;2014-10-01;Ukraine;48.97076, 28.83779
701274;Myhove;Myhove;Migove,Migovo,Migovoye,Mikhova,Myhove,Мигове;48.15749;25.37904;P;PPL;UA;;03;;;;3546;;451;Europe/Kiev;2012-01-18;Ukraine;48.15749, 25.37904
701906;Manevychi;Manevychi;Maneviche,Manevichi,Manevychi,Маневичі;51.29405;25.53436;P;PPLA2;UA;;24;;;;0;;199;Europe/Kiev;2014-08-06;Ukraine;51.29405, 25.53436
702073;Malokakhovka;Malokakhovka;Malaya Kakhovka,Malokakhovka,Малокаховка;46.78142;33.4479;P;PPL;UA;;08;;;;2862;;28;Europe/Kiev;2015-02-06;Ukraine;46.78142, 33.4479
702477;Lyubech;Lyubech;Ljubech,Lyubech,Lyubich',Lyubich’,Lyubyach,Любеч;51.7026;30.65692;P;PPL;UA;;02;;;;2550;;151;Europe/Kiev;2014-06-26;Ukraine;51.7026, 30.65692
703042;Lypcha;Lypcha;Lipca,Lipcha,Lipcse,Lipsa,Lipse,Lipsha,Lipča,Lipša,Lypcha,Липча;48.26107;23.38336;P;PPL;UA;;25;;;;3640;;207;Europe/Uzhgorod;2012-05-06;Ukraine;48.26107, 23.38336
704508;Kramators’k;Kramators'k;Kramators'k,Kramatorsk,Kramatorskaja,Kramatorskaya,Kramators’k,Краматорск,Краматорськ;48.72305;37.55629;P;PPL;UA;;05;;;;173700;;74;Europe/Kiev;2014-04-30;Ukraine;48.72305, 37.55629
704858;Korsun’-Shevchenkivs’kyy;Korsun'-Shevchenkivs'kyy;Karun' Sheychenkovskaya,Karun’ Sheychenkovskaya,Korssun-Schewtschem Kowskij,Korsun',Korsun'-Shevchenkivs'kij,Korsun'-Shevchenkivs'kyy,Korsun'-Shevchenkovskij,Korsun'-Shevchenkovskiy,Korsun’,Korsun’-Shevchenkivs’kyy,Korsun’-Shevchenkovskiy,Корсунь-Шевченковский,Корсунь-Шевченківський;49.41894;31.25865;P;PPLA2;UA;;01;;;;19000;;119;Europe/Kiev;2014-11-05;Ukraine;49.41894, 31.25865
705392;Kolomyya;Kolomyya;Colomeea,Kholomya,Kolomea,Kolomea-Ost,Kolomeo,Kolomija,Kolomyia,Kolomyja,Kolomyya,Kołomyja,Коломия,Коломыя;48.53115;25.03649;P;PPLA2;UA;;06;705389;;;61781;;289;Europe/Kiev;2014-09-05;Ukraine;48.53115, 25.03649
705442;Kulevcha;Kulevcha;Culevcea,Kolesnoye,Kolisne,Kolësnoye,Kulevcha,Kulevchya,Кулевча;46.03034;29.93614;P;PPL;UA;;17;;;;3882;;23;Europe/Kiev;2015-02-06;Ukraine;46.03034, 29.93614
616196;Staryy Dobrotvir;Staryy Dobrotvir;Starij Dobrotvir,Staryy Dobrotvir,Staryy Dobrotvor,Старий Добротвір;50.23154;24.37701;P;PPL;UA;;15;;;;6436;;201;Europe/Kiev;2012-11-08;Ukraine;50.23154, 24.37701
686852;Zoryns’k;Zoryns'k;Yelenovka,Yelënovka,Zorins'k,Zorinsk,Zoryns'k,Zoryns’k,Зоринск,Зоринськ;48.41194;38.62361;P;PPL;UA;;14;;;;7532;;265;Europe/Zaporozhye;2014-06-05;Ukraine;48.41194, 38.62361
686896;Zolochiv;Zolochiv;Solotschiw,Zlochev,Zlochuv,Zloczow,Zolochev,Zolochiv,Zolociv,Zolociva,Zolotchiv,Zolotjiv,Zolotsiv,Zolotsjiv,Zolotšiv,Zoloçiv,Zoločiv,Zoločiva,Złoczów,jollochiu,tslwktswf,zlwtswb,zorochiu,zuo luo qiao fu,zwlwtshyf,Золочев,Золочив,Золочів,Զոլոչև,זלוטשוב,تسلوکتسوف,زولوتشيف,ゾーロチウ,佐洛乔夫,졸로치우;49.80597;24.89436;P;PPLA2;UA;;15;;;;22608;;276;Europe/Kiev;2014-08-06;Ukraine;49.80597, 24.89436
705540;Kobleve;Kobleve;Kobleve,Koblevo,Koblewo,Коблеве,Коблево;46.66499;31.20804;P;PPL;UA;UA;16;;;;2800;;28;Europe/Kiev;2012-05-30;Ukraine;46.66499, 31.20804
706634;Katerynopil’;Katerynopil';Ekaterinople,Kal'niboloto,Kal’niboloto,Katerinopil',Katerinopol',Katerinopol’,Katerynopil',Katerynopil’,Malyj Jekaterinopol,Yekaterinopol',Yekaterinopol’,Катеринополь,Катеринопіль;48.9553;30.96823;P;PPLA2;UA;;01;;;;0;;140;Europe/Kiev;2014-11-05;Ukraine;48.9553, 30.96823
708082;Hrymayliv;Hrymayliv;Grimajliv,Grimalov,Grimaylov,Grzhimalov,Grzhymalov,Grzymalow,Grzymałów,Gzhimaluv,Hrymayliv,Гримайлів;49.33208;26.01112;P;PPL;UA;;22;;;;2051;;308;Europe/Kiev;2012-01-18;Ukraine;49.33208, 26.01112
709643;Drabiv;Drabiv;Drabiv,Drabov,Драбов,Драбів;49.96029;32.1407;P;PPLA2;UA;;01;;;;7011;;119;Europe/Kiev;2014-11-05;Ukraine;49.96029, 32.1407
710229;Debal’tseve;Debal'tseve;Debal'ceve,Debal'cevo,Debal'tseve,Debal'tsevo,Debalzewo,Debal’tseve,Debal’tsevo,Дебальцеве,Дебальцево;48.34072;38.4049;P;PPL;UA;;05;;;;30200;;323;Europe/Kiev;2014-04-30;Ukraine;48.34072, 38.4049
710556;Chervonoarmiys’k;Chervonoarmiys'k;Chervonnoarmeysk,Chervonoarmeysk,Chervonoarmijs'k,Chervonoarmiys'k,Chervonoarmiys’k,Pulin,Червоноармійськ;50.46784;28.2713;P;PPLA2;UA;;27;;;;0;;233;Europe/Kiev;2014-10-01;Ukraine;50.46784, 28.2713
710716;Chornobay;Chornobay;Chernobaj,Chernobay,Chornobaj,Chornobay,Чернобай,Чорнобай;49.66644;32.32932;P;PPLA2;UA;;01;;;;8053;;116;Europe/Kiev;2014-11-05;Ukraine;49.66644, 32.32932
712336;Bereznyky;Bereznyky;Bereznik,Berezniki,Bereznyky,Березники;48.51407;23.21982;P;PPL;UA;;25;;;;3055;;313;Europe/Uzhgorod;2012-05-06;Ukraine;48.51407, 23.21982
8516167;Horenka;Horenka;Gorenka,Horenka,Горенка;50.55731;30.33217;P;PPL;UA;;13;;;;5358;;123;Europe/Kiev;2015-04-29;Ukraine;50.55731, 30.33217
686928;Zmiyiv;Zmiyiv;Gottvald,Gotval'd,Gotval’d,Zmiev,Zmiiv,Zmiyev,Zmiyiv,Змиев,Зміїв;49.67453;36.34775;P;PPLA2;UA;;07;;;;16095;;93;Europe/Kiev;2014-07-08;Ukraine;49.67453, 36.34775
710735;Chernihiv;Chernihiv;Cernigau,Cernigiv,Cernigivo,Cernigovas,Cernigău,Cernihiv,Cernihivo,Cernihiw,Cernihov,Cerniqov,Chernigiv,Chernigov,Chernihiv,Chernígov,Csernyihiv,Czernihovia,Czernihow,Czernihów,Gorad Charnigau,Tchernihiv,Tjernihiv,Tschernigow,Tschernihiw,Tsernigiv,Tsernihiv,Tsjernihiv,Txernihiv,Txerníhiv,Tšernigiv,Tšernihiv,cheleunihiu,chernigovi,cherunihiu,chrnyhyf,qie er ni ge fu,tshrnyhyf,z'rnyhyb,Çernigiv,Çerniqov,Ĉernigivo,Ĉernihivo,Černigiv,Černigovas,Černihiv,Černihiw,Černihov,Горад Чарнігаў,Чернигов,Чернігів,Чернїгів,Չեռնիգով,צ'רניהיב,تشرنيهيف,چرنیهیف,چرنیہیف,ჩერნიგოვი,チェルニーヒウ,切尔尼戈夫,체르니히우;51.50551;31.28487;P;PPLA;UA;;02;;;;307684;;127;Europe/Kiev;2013-05-12;Ukraine;51.50551, 31.28487
710935;Chaplynka;Chaplynka;Chaplinka,Chaplynka,Tschaplinka,Чаплинка;46.36507;33.54027;P;PPLA2;UA;;08;;;;10224;;19;Europe/Kiev;2014-12-03;Ukraine;46.36507, 33.54027
711669;Boryslav;Boryslav;Borislau,Borislav,Boryslav,Boryslaw,Borysxaw,Borysław,Борислав;49.28672;23.43238;P;PPL;UA;;15;;;;36704;;359;Europe/Kiev;2013-01-10;Ukraine;49.28672, 23.43238
711867;Bohuslav;Bohuslav;Boguslav,Boguslaw,Bohuslav,Богуслав;49.54939;30.8744;P;PPLA2;UA;;13;;;;16498;;164;Europe/Kiev;2014-10-01;Ukraine;49.54939, 30.8744
712775;Bashtanka;Bashtanka;Bashtanka,Баштанка;47.40719;32.43868;P;PPLA2;UA;;16;;;;12657;;77;Europe/Kiev;2014-11-05;Ukraine;47.40719, 32.43868
688746;Vynohradiv;Vynohradiv;Horvinogradovo,Nagyszollos,Nagyszöllös,Nagyszőllős,Sevljus,Sevlus,Sevluš,Sevlyush,Vel'ky Sevl'yush,Vel’ky Sevl’yush,Vinogradiv,Vinogradov,Vynohradiv,Виноградов,Виноградів;48.14135;23.02666;P;PPL;UA;UA;25;;;;27600;;133;Europe/Uzhgorod;2012-03-26;Ukraine;48.14135, 23.02666
689434;Vyzhnytsya;Vyzhnytsya;Vijnita,Vijniţa,Vizhnicja,Vizhnitsa,Viznits,Vyzhnytsya,Вижниця;48.24801;25.19452;P;PPLA2;UA;;03;;;;4834;;338;Europe/Kiev;2014-10-01;Ukraine;48.24801, 25.19452
690312;Vatutine;Vatutine;Vatutine,Vatutino,Ватутино,Ватутіне;49.01502;31.06211;P;PPL;UA;;01;;;;19407;;141;Europe/Kiev;2014-06-27;Ukraine;49.01502, 31.06211
690335;Vasyshcheve;Vasyshcheve;Vasishchevo,Vasishheve,Vasishhevo,Vasyshcheve,Васищеве,Васищево;49.82852;36.32691;P;PPL;UA;;07;;;;5862;;94;Europe/Kiev;2014-06-27;Ukraine;49.82852, 36.32691
690571;Utkivka;Utkivka;Utkivka,Utkovka,Утківка;49.78583;36.07528;P;PPL;UA;;07;;;;1272;;98;Europe/Kiev;2012-01-18;Ukraine;49.78583, 36.07528
690773;Ukrainka;Ukrainka;Ukrainka,Ukrayinka,Украинка,Українка;50.14317;30.74612;P;PPL;UA;;13;;;;13636;;98;Europe/Kiev;2014-01-12;Ukraine;50.14317, 30.74612
692714;Staryy Krym;Staryy Krym;Eski Krym,Solkhat,Starij Krim,Stary Krim,Stary Krym,Staryy Krim,Staryy Krym,Старий Крим;45.02887;35.09174;P;PPL;UA;;11;;;;9725;;336;Europe/Simferopol;2012-01-18;Ukraine;45.02887, 35.09174
692749;Stari Bohorodchany;Stari Bohorodchany;Stare-Bogorodchany,Stari Bogorodcani,Stari Bohorodchany,Staryye Bogorodchany,Старі Богородчани;48.83361;24.5243;P;PPL;UA;;06;;;;3426;;312;Europe/Kiev;2012-01-18;Ukraine;48.83361, 24.5243
693805;Simferopol;Simferopol;Ak-Mechet,Akmescit,Akməsҗit,Aqmescit,Gorad Simferopal',SIP,Simferopol,Simferopol',Simferopolis,Simferopolj,Simferopoll,Simferopolo,Simferòpoll,Simferópol,Sinferopoli,Symferopol,Symferopoli,Sympheropolis,Szimferopol,shinferopori,simpelopol,symfrbwl,symfrwbwl,symfrwpwl,symprwpwl,xin fei luo bo er,Συμφερόπολη,Акмәсҗит,Горад Сімферопаль,Симферопол,Симферополь,Симферопољ,Сімферополь,Սիմֆերոպոլ,סימפרופול,سيمفربول,سيمفروبول,سیمفروپول,სიმფეროპოლი,シンフェロポリ,辛菲罗波尔,심페로폴;44.95719;34.11079;P;PPLA;UA;;11;8449684;;;358108;;247;Europe/Simferopol;2014-01-06;Ukraine;44.95719, 34.11079
694216;Shepetivka;Shepetivka;Schepetowka,Sepetivka,Shepetivka,Shepetovka,Шепетовка,Шепетівка;50.18545;27.06365;P;PPLA2;UA;;09;;;;46419;;252;Europe/Kiev;2014-09-05;Ukraine;50.18545, 27.06365
694350;Sharhorod;Sharhorod;Shargorod,Sharhorod,Шаргород;48.73835;28.08497;P;PPLA2;UA;;23;;;;6895;;232;Europe/Kiev;2014-10-01;Ukraine;48.73835, 28.08497
694494;Serebryanka;Serebryanka;Serebrjanka,Serebryanka,Серебрянка;48.91917;38.13494;P;PPL;UA;;05;;;;1111;;77;Europe/Kiev;2014-06-05;Ukraine;48.91917, 38.13494
695365;Rivne;Rivne;Rivne,Rovno,Rovnoye,Ровно;48.24742;31.75432;P;PPL;UA;;10;;;;5296;;151;Europe/Kiev;2012-04-19;Ukraine;48.24742, 31.75432
697750;Perechyn;Perechyn;Perechin,Perechyn,Perecin,Perecseny,Perečin,Перечин;48.73616;22.482;P;PPLA2;UA;;25;;;;7000;;151;Europe/Uzhgorod;2014-08-06;Ukraine;48.73616, 22.482
697945;Pasichna;Pasichna;Pasechna,Pasechnaya,Pasichna,Pasicna,Pasieczna,Пасічна;48.57152;24.43003;P;PPL;UA;;06;;;;4530;;538;Europe/Kiev;2012-01-18;Ukraine;48.57152, 24.43003
698852;Novyy Yarychiv;Novyy Yarychiv;Jarychow,Jaryczow,Jaryczow Nowy,Jaryczów,Jaryczów Nowy,Novij Ariciv,Novyy Yarychev,Novyy Yarychiv,Yarychev Novy,Yarychev Novyy,Yarychuv,Новий Яричів;49.90444;24.30523;P;PPL;UA;;15;;;;2841;;223;Europe/Kiev;2012-01-18;Ukraine;49.90444, 24.30523
699617;Novodonets’ke;Novodonets'ke;Novodoneckoe,Novodonets'ke,Novodonetskoye,Novodonets’ke,Новодонецкое;48.63526;36.98477;P;PPL;UA;;05;;;;5895;;150;Europe/Kiev;2015-10-05;Ukraine;48.63526, 36.98477
699675;Novoazovs'k;Novoazovs'k;Budennovka,Budennowka,Budenovka,Budyanovka,Budyenovka,Budënnovka,Novoazovs'k,Novoazovsk,Novoazovskoye,Novonikolayevskaya,Nowo-Nikolajewskaja,Новоазовск;47.11389;38.08599;P;PPL;UA;UA;05;;;;12200;;24;Europe/Kiev;2010-06-18;Ukraine;47.11389, 38.08599
701372;Mena;Mena;Mena,Мена;51.5217;32.21568;P;PPLA2;UA;;02;;;;12766;;129;Europe/Kiev;2014-11-05;Ukraine;51.5217, 32.21568
703013;Lypovets’;Lypovets';Lipovec',Lipovets,Lypovets',Lypovets’,Липовець;49.22964;29.05555;P;PPLA2;UA;;23;;;;0;;243;Europe/Kiev;2014-10-01;Ukraine;49.22964, 29.05555
703071;Lyman;Lyman;Liman,Lyman,Лиман;49.59769;36.4703;P;PPL;UA;;07;;;;4008;;94;Europe/Kiev;2014-06-27;Ukraine;49.59769, 36.4703
705115;Kostyantynivka;Kostyantynivka;Konstantinovka,Konstantinovka Yedionkhta,Kostjantinivka,Kostyantynivka,Yedinokhta,Константиновка,Костянтинівка;46.81673;35.42287;P;PPL;UA;;26;9130026;;;11540;;7;Europe/Zaporozhye;2014-10-01;Ukraine;46.81673, 35.42287
705735;Kitsman’;Kitsman';Cotman,Cozmeni,Kicman',Kitsman',Kitsman’,Kotsman,Kotsmen,Kotzman,Kozmeny,Кіцмань;48.44357;25.7668;P;PPLA2;UA;;03;;;;0;;217;Europe/Kiev;2014-10-01;Ukraine;48.44357, 25.7668
706466;Khartsyz’k;Khartsyz'k;Kharciz'k,Kharcyzsk,Khartsysk,Khartsyz'k,Khartsyzsk,Khartsyz’k,Харцизьк,Харцызск;48.04243;38.14728;P;PPL;UA;;05;;;;64000;;241;Europe/Kiev;2014-06-05;Ukraine;48.04243, 38.14728
706900;Kaniv;Kaniv;Kanev,Kanew,Kaniv,Kanëv,Канев,Канів;49.75182;31.46004;P;PPLA2;UA;;01;;;;25666;;126;Europe/Kiev;2014-11-05;Ukraine;49.75182, 31.46004
707027;Kamionka Strumitowa;Kamionka Strumitowa;Kamyanka-Buz'ka,Kam'janka-Buz'ka,Kamenka,Kamenka Strumilova,Kamenka-Bugskaya,Kamenka-Strumilovskaya,Kamionka,Kamionka Strumitowa,Kam”yanka-Buz’ka,Кам’янка-Бузька;50.10655;24.34451;P;PPLA2;UA;;15;;;;0;;215;Europe/Kiev;2014-08-06;Ukraine;50.10655, 24.34451
707317;Iza;Iza;Iza,Іза,Иза;48.21525;23.32867;P;PPL;UA;;25;;;;5237;182;183;Europe/Uzhgorod;2012-05-20;Ukraine;48.21525, 23.32867
707758;Hlukhiv;Hlukhiv;Gluchoff,Gluchow,Gluhiv,Glukhiv,Glukhov,Gluxov,Gorad Glukhau,Głuchów,Hloechiv,Hloukhiv,Hluchiv,Hluchivas,Hluchiw,Hluhiv,Hlujiv,Hlukhiv,Hlújiv,furuhiu,ge lu huo fu,heulluhiu,hlwkhyf,Глухив,Глухов,Глухів,Горад Глухаў,Գլուխով,هلوخيف,هلوخیف,フルーヒウ,格盧霍夫,흘루히우;51.67822;33.9162;P;PPLA2;UA;;21;;;;35387;;169;Europe/Kiev;2014-11-05;Ukraine;51.67822, 33.9162
708257;Hoshcha;Hoshcha;Goshcha,Goshha,Hoshcha,Hoszcza,Гоща;50.6003;26.67435;P;PPLA2;UA;;19;;;;5084;;199;Europe/Kiev;2014-08-06;Ukraine;50.6003, 26.67435
709114;Fontanka;Fontanka;Fontanka,Makagonka,Фонтанка;46.56646;30.85965;P;PPL;UA;;17;;;;6027;;41;Europe/Kiev;2015-02-06;Ukraine;46.56646, 30.85965
710035;Dymytrov;Dymytrov;Dimitrov,Dimitrova,Dimitrovo,Dymytrov,Imeni Dimitrova,Димитров;48.30523;37.26091;P;PPL;UA;;05;;;;49646;;179;Europe/Kiev;2014-12-24;Ukraine;48.30523, 37.26091
710214;Dihtyari;Dihtyari;Degtjari,Degtyari,Degtyary,Digtjari,Dihtyari,Дегтяри,Дігтярі;50.58264;32.77012;P;PPL;UA;;02;;;;1289;;115;Europe/Kiev;2014-06-27;Ukraine;50.58264, 32.77012
710587;Chervonaya Sloboda;Chervonaya Sloboda;Chervona Sloboda,Chervonaja Sloboda,Chervonaya Sloboda,Chervonaya Slobodka,Krasnaya Sloboda,Червона Слобода,Червоная Слобода;49.3789;32.14643;P;PPL;UA;;01;;;;9333;;88;Europe/Kiev;2012-01-18;Ukraine;49.3789, 32.14643
618835;Zhydachiv;Zhydachiv;Zhidachev,Zhidachiv,Zhidachov,Zhidechuv,Zhydachiv,Zhydachuv,Zydaczow,Żydaczów,Жидачів;49.38468;24.14254;P;PPLA2;UA;;15;;;;0;;261;Europe/Kiev;2014-08-05;Ukraine;49.38468, 24.14254
687726;Zaozerne;Zaozerne;Peschanka,Yaly-Maynak,Zaozerne,Zaozernoe,Zaozernoye,Zaozërnoye,Заозерне,Заозерное;45.15816;33.27866;P;PPL;UA;;11;;;;4161;;4;Europe/Simferopol;2015-04-08;Ukraine;45.15816, 33.27866
688512;Yamnytsya;Yamnytsya;Jamnicja,Yamnitsa,Yamnytsya,Ямниця;48.98972;24.7075;P;PPL;UA;;06;;;;3223;;231;Europe/Kiev;2012-01-18;Ukraine;48.98972, 24.7075
688532;Yalta;Yalta;Jalta,Yalta,Ялта;46.96279;37.27365;P;PPL;UA;;05;;;;5519;;32;Europe/Kiev;2014-10-01;Ukraine;46.96279, 37.27365
688689;Vysokopillya;Vysokopillya;Visokopillja,Vysokopillya,Vysokopol'e,Vysokopol'ye,Vysokopol’ye,Високопілля,Высокополье;47.49187;33.53061;P;PPLA2;UA;;08;;;;4542;;86;Europe/Kiev;2014-12-03;Ukraine;47.49187, 33.53061
689487;Vyshneve;Vyshneve;Vishneve,Vishnevoe,Vishnevoye,Vishnëvoye,Vyshneve,Вишневе,Вишневое;50.38913;30.3705;P;PPL;UA;;13;;;;33183;;176;Europe/Kiev;2014-06-27;Ukraine;50.38913, 30.3705
690285;Velyka Bahachka;Velyka Bahachka;Bogachka,Velika Bagachka,Velikaya Bagachka,Velikaya Bogachka,Velyka Bahachka,Велика Багачка;49.79116;33.72258;P;PPLA2;UA;;18;;;;5707;;92;Europe/Kiev;2014-03-07;Ukraine;49.79116, 33.72258
690648;Usatove;Usatove;Usatove,Usatovo,Усатове;46.53296;30.6596;P;PPL;UA;;17;;;;7732;;25;Europe/Kiev;2015-02-06;Ukraine;46.53296, 30.6596
690745;Ulichnoye;Ulichnoye;Ulichne,Ulichno,Ulichnoye,Uliczno,Ulychne,Уличне;49.23385;23.65111;P;PPL;UA;;15;;;;3671;;339;Europe/Kiev;2012-01-18;Ukraine;49.23385, 23.65111
690906;Tyachiv;Tyachiv;Tachevo,Taciv,Tacovo,Tačovo,Tjachiv,Tyachev,Tyachevo,Tyachiv,Тячів;48.01179;23.57061;P;PPLA2;UA;;25;;;;9422;;213;Europe/Uzhgorod;2014-08-06;Ukraine;48.01179, 23.57061
690960;Turka;Turka;Turka,Turko,Турка;49.15411;23.02967;P;PPLA2;UA;;15;;;;7395;;561;Europe/Kiev;2014-08-06;Ukraine;49.15411, 23.02967
691803;Tatarbunary;Tatarbunary;Tatar Bunar,Tatarbunari,Tatarbunary,Tetereshti,Татарбунари;45.83731;29.61424;P;PPLA2;UA;;17;;;;10396;;19;Europe/Kiev;2014-11-05;Ukraine;45.83731, 29.61424
693379;Snihurivka;Snihurivka;Smigirevk,Snegirevka,Snegirëvka,Snigirevka,Snigirëvka,Snigurivka,Snihurivka,Снігурівка;47.07579;32.80516;P;PPLA2;UA;;16;;;;14873;;51;Europe/Kiev;2014-11-05;Ukraine;47.07579, 32.80516
695342;Rozdil;Rozdil;Razdol,Rozdil,Rozdo,Rozdul,Розділ;49.46144;24.0623;P;PPL;UA;;15;;;;2892;;271;Europe/Kiev;2013-01-10;Ukraine;49.46144, 24.0623
695344;Rozdil’na;Rozdil'na;Posad Pazdelnaya,Razdel'naja,Razdel'naya,Razdel’naya,Раздельная;46.84334;30.07919;P;PPL;UA;;17;;;;17615;;146;Europe/Kiev;2010-06-15;Ukraine;46.84334, 30.07919
695439;Roskoshnyy;Roskoshnyy;Raskoshnaya,Roskoshnaja,Roskoshnaya,Roskoshno,Roskoshnyy,Роскошная;49.37087;30.18471;P;PPL;UA;;13;;;;3140;;240;Europe/Kiev;2012-01-18;Ukraine;49.37087, 30.18471
695849;Rokytne;Rokytne;Rakitno,Rakitnoe,Rakitnoye,Rokitne,Rokytne,Ракитное,Рокитне;49.68665;30.47384;P;PPLA2;UA;;13;;;;0;;155;Europe/Kiev;2014-10-01;Ukraine;49.68665, 30.47384
696943;Pidhorodne;Pidhorodne;Pidgorodne,Pidhorodne,Podgorodnoe,Podgorodnoye,Подгородное,Підгородне;48.57528;35.1068;P;PPL;UA;;04;;;;17103;;56;Europe/Kiev;2014-09-05;Ukraine;48.57528, 35.1068
696948;Pidhorodna;Pidhorodna;Pidgorodna,Pidhorodna,Podgorodnaja,Podgorodnaya,Подгородная,Підгородна;48.10704;30.88953;P;PPL;UA;;16;;;;2481;;170;Europe/Kiev;2014-06-27;Ukraine;48.10704, 30.88953
697803;Pechenihy;Pechenihy;Pechenegi,Pechenigi,Pechenihy,Печенеги,Печеніги;49.87167;36.93472;P;PPLA2;UA;;07;;;;0;;95;Europe/Kiev;2014-06-27;Ukraine;49.87167, 36.93472
697889;Pavlohrad;Pavlohrad;Gorad Paulagrad,Pavlogi,Pavlograd,Pavlohrad,Pavlohradas,Pawlograd,Pawlohrad,Pawłohrad,ba fu luo ge lei,pabeulloheuladeu,paurofurado,pawlwhrad,Горад Паўлаград,Павлоград,Պավլոգրադ,پاولوهراد,パウロフラード,巴甫洛格勒,파블로흐라드;48.53426;35.87098;P;PPLA2;UA;;04;;;;115932;;70;Europe/Kiev;2014-09-05;Ukraine;48.53426, 35.87098
699015;Nove Davydkovo;Nove Davydkovo;Nove Davidkovo,Nove Davydkove,Nove Davydkovo,Novoye Davidkovo,Novoye Davydkovo,Нове Давидково;48.44133;22.62164;P;PPL;UA;;25;;;;3853;;115;Europe/Uzhgorod;2012-04-05;Ukraine;48.44133, 22.62164
700831;Molodiya;Molodiya;Cosmin,Kosmin,Molodia,Molodiya,Plaiul Cosmin,Молодія;48.22326;26.02139;P;PPL;UA;;03;;;;3691;;240;Europe/Kiev;2012-01-18;Ukraine;48.22326, 26.02139
701286;Mizhvodne;Mizhvodne;Mezhvodnoe,Mezhvodnoye,Mizhvodne,Yarylgach,Межводное,Міжводне;45.58751;32.84501;P;PPL;UA;;11;;;;1816;;11;Europe/Simferopol;2012-01-18;Ukraine;45.58751, 32.84501
701413;Melekyne;Melekyne;Byelosarai,Melekine,Melekino,Melekyne,Milyenko,Мелекине,Мелекино;46.95957;37.39981;P;PPL;UA;;05;;;;1356;;1;Europe/Kiev;2014-10-01;Ukraine;46.95957, 37.39981
702246;Mala Bilozerka;Mala Bilozerka;Mala Bilozerka,Malaya Belozerka,Malaya Belozërka,Мала Білозерка;47.24737;34.93457;P;PPL;UA;;26;;;;5717;;76;Europe/Zaporozhye;2012-01-18;Ukraine;47.24737, 34.93457
702302;Makiv;Makiv;;48.79487;26.69188;P;PPL;UA;;09;;;;5602;;266;Europe/Kiev;2012-12-09;Ukraine;48.79487, 26.69188
702550;L'viv;L'viv;L'viv,L'vov,LWO,Lavov,Lemberg,Leopoli,Leopolis,Leópolis,Liov,Lviv,Lvivo,Lvov,Lvova,Lvovas,Lwow,Lwów,l'vov,lbwb,li wo fu,libiu,lvov,rivu~iu,Ļvova,Ľvov,Лвов,Львов,Львів,לבוב,לעמבערג,リヴィウ,利沃夫,리비우;49.83826;24.02324;P;PPLA;UA;;15;;;;717803;;284;Europe/Kiev;2016-01-05;Ukraine;49.83826, 24.02324
702874;Lokhvytsya;Lokhvytsya;Lochwiza,Lokhvica,Lokhvicja,Lokhvitsa,Lokhvytsa,Lokhvytsya,Лохвица,Лохвиця;50.36776;33.26024;P;PPLA2;UA;;18;;;;11950;;104;Europe/Kiev;2014-12-03;Ukraine;50.36776, 33.26024
704143;Kremenets’;Kremenets';Kremenec,Kremenec',Kremenets,Kremenets',Kremenets’,Krzemieniec,Kshemenets,Кременец,Кременець;50.09693;25.72459;P;PPLA2;UA;;22;;;;21000;;301;Europe/Kiev;2014-09-05;Ukraine;50.09693, 25.72459
704968;Korets’;Korets';Korec,Korec',Korets,Korets',Korets’,Korzec,Korzhets,Kozhets,Корец,Корець;50.61655;27.16055;P;PPLA2;UA;;19;;;;8446;;214;Europe/Kiev;2014-08-06;Ukraine;50.61655, 27.16055
706165;Khust;Khust;Chust,Guste,Huszt,Khust,Хуст;48.1793;23.29909;P;PPLA2;UA;;25;;;;27999;;169;Europe/Uzhgorod;2014-08-06;Ukraine;48.1793, 23.29909
706749;Karlivka;Karlivka;Karlivka,Karlovka,Karlowka,Карловка,Карлівка;49.45723;35.12975;P;PPLA2;UA;;18;;;;17226;;151;Europe/Kiev;2015-05-06;Ukraine;49.45723, 35.12975
706914;Komysh-Zorya;Komysh-Zorya;Kamysh-Zarja,Kamysh-Zarya,Komish-Zorja,Komysh-Zorya,Камыш-Заря,Комиш-Зоря;47.32755;36.69298;P;PPL;UA;;26;;;;2321;;230;Europe/Zaporozhye;2014-06-05;Ukraine;47.32755, 36.69298
707052;Kamianka;Kamianka;Kamyanka,Kam'janka,Kamenka,Kamenka-Shevchenkovskaya,Kamianka,Kam”yanka,Каменка,Кам’янка;49.0318;32.10396;P;PPLA2;UA;;01;;;;14547;;127;Europe/Kiev;2014-11-05;Ukraine;49.0318, 32.10396
707220;Kalcheva;Kalcheva;Calceva,Kal'chevo,Kalcheva,Kalchevaya,Kal’chevo,Калчева;45.73746;28.81441;P;PPL;UA;;17;;;;3388;;57;Europe/Kiev;2015-01-07;Ukraine;45.73746, 28.81441
707695;Illintsi;Illintsi;Il'intsy,Illinci,Illintsi,Il’intsy,Іллінці,Иллінці;49.10479;29.21773;P;PPLA2;UA;;23;;;;10770;;214;Europe/Kiev;2014-10-01;Ukraine;49.10479, 29.21773
707881;Hupalivka;Hupalivka;Gupalivka,Gupalovka,Hupalivka,Гупаловка,Гупалівка;49.11139;34.73556;P;PPL;UA;;04;;;;1347;;76;Europe/Kiev;2013-10-01;Ukraine;49.11139, 34.73556
708403;Hornostayivka;Hornostayivka;Gornostaivka,Gornostayevka,Gorostayevka,Hornostayivka,Горностаївка;47.00777;33.72899;P;PPLA2;UA;;08;;;;6762;;59;Europe/Kiev;2014-12-03;Ukraine;47.00777, 33.72899
708569;Holovyne;Holovyne;Golovin,Golovine,Golovino,Holovyne,Головине;50.47118;28.8253;P;PPL;UA;;27;;;;1891;;205;Europe/Kiev;2013-03-05;Ukraine;50.47118, 28.8253
709334;Dzhankoy;Dzhankoy;Dshankoi,Dzhanhoi,Dzhankoi,Dzhankoj,Dzhankoy,Джанкой;45.71168;34.39274;P;PPLA2;UA;;11;;;;41731;;16;Europe/Simferopol;2014-04-30;Ukraine;45.71168, 34.39274
709584;Druzhba;Druzhba;Druzhba,Khutor Mikhailovsky,Khutor Mikhaylovskiy,Mikhailovskaya Khutor,Mikhaylovskiy Khutor,Дружба;52.04545;33.94517;P;PPL;UA;;21;;;;5220;;185;Europe/Kiev;2014-06-27;Ukraine;52.04545, 33.94517
709808;Dovhe;Dovhe;Dolga,Dolgoye,Dolha,Dovge,Dovhe,Довге;48.36527;23.27904;P;PPL;UA;;25;;;;6541;;172;Europe/Uzhgorod;2012-05-06;Ukraine;48.36527, 23.27904
711116;Buryn’;Buryn';Burin',Buryn',Buryn’,Буринь,Бурынь;51.19912;33.83523;P;PPLA2;UA;;21;;;;11400;;150;Europe/Kiev;2014-11-05;Ukraine;51.19912, 33.83523
711213;Buki;Buki;Buki,Буки;49.09583;30.39641;P;PPL;UA;;01;;;;2230;;172;Europe/Kiev;2015-05-16;Ukraine;49.09583, 30.39641
712569;Bilokurakyne;Bilokurakyne;Belokurakino,Bilokurakine,Bilokurakyne,Белокуракино,Білокуракине;49.5341;38.73067;P;PPLA2;UA;;14;;;;7712;;88;Europe/Zaporozhye;2014-07-08;Ukraine;49.5341, 38.73067
712715;Bazaliya;Bazaliya;Bazalia,Bazaliya,Базалія;49.71267;26.47331;P;PPL;UA;;09;;;;2035;;303;Europe/Kiev;2012-01-18;Ukraine;49.71267, 26.47331
712966;Bakhmach;Bakhmach;Bakhmach,Бахмач;51.20093;32.77451;P;PPLA2;UA;;02;;;;0;;138;Europe/Kiev;2014-11-05;Ukraine;51.20093, 32.77451
713784;Adzhamka;Adzhamka;Adzhamka,Аджамка;48.54245;32.53542;P;PPL;UA;;10;;;;3859;;120;Europe/Kiev;2012-01-18;Ukraine;48.54245, 32.53542
865086;Tayirove;Tayirove;Tairove,Tairovo,Tayirove,Таїрове;46.36313;30.64891;P;PPL;UA;;17;;;;1849;;19;Europe/Kiev;2015-02-07;Ukraine;46.36313, 30.64891
687556;Karolino-Buhaz;Karolino-Buhaz;Bugaz,Kar'yer Devyatnadtsat' Kilometrov,Karalino Bugaz,Karolino-Bugaz,Karolino-Buhaz,Kar’yer Devyatnadtsat’ Kilometrov,Zatoka,Каролино-Бугаз,Кароліно-Бугаз;46.14492;30.52609;P;PPL;UA;;17;;;;2241;;22;Europe/Kiev;2015-02-06;Ukraine;46.14492, 30.52609
688951;Voskhod;Voskhod;Dzhardzhava,Dzhardzhavi,Voskhod;45.33959;36.41341;P;PPL;UA;;11;;;;6557;;72;Europe/Simferopol;2015-03-08;Ukraine;45.33959, 36.41341
689159;Volochys’k;Volochys'k;Volochis'k,Volochisk,Volochys'k,Volochys’k,Woloczysk,Волочиськ;49.53748;26.21568;P;PPLA2;UA;;09;;;;0;;319;Europe/Kiev;2014-09-05;Ukraine;49.53748, 26.21568
690165;Velyki Kopani;Velyki Kopani;Bol'shiye Kopani,Bol'shoye Kopani,Bol’shiye Kopani,Bol’shoye Kopani,Veliki Kopani,Velikie Kopani,Velikiye Kopani,Velyki Kopani,Velyki Kopany,Великие Копани,Великі Копані;46.48684;32.97498;P;PPL;UA;;08;;;;5464;;11;Europe/Kiev;2015-01-07;Ukraine;46.48684, 32.97498
690822;Vuhlehirs’k;Vuhlehirs'k;Chazepetowka,Chazepetrovka,Khatsapetovka,Khatsepetovka,Uglegorsk,Vuglegirs'k,Vuhlehirs'k,Vuhlehirs’k,Вуглегірськ,Углегорск;48.31474;38.27423;P;PPL;UA;;05;;;;9926;;296;Europe/Kiev;2014-06-26;Ukraine;48.31474, 38.27423
691279;Troyits’ke;Troyits'ke;Troic'ke,Troickoe,Troitsk,Troitskoye,Troyits'ke,Troyits’ke,Троицкое,Троїцьке;49.9145;38.29277;P;PPLA2;UA;;14;;;;0;;111;Europe/Zaporozhye;2014-07-08;Ukraine;49.9145, 38.29277
691374;Torez;Torez;Chistyakovo,Thorez,Topez,Tores,Torez,Torezas,Tschistjakowa,Tschistjakowo,duo lie shi,twrz,Топез,Торез,Տորեզ,تورز,多列士;48.03876;38.59685;P;PPL;UA;;05;;;;68037;;240;Europe/Kiev;2014-06-05;Ukraine;48.03876, 38.59685
691603;Terpinnya;Terpinnya;Terpen'ye,Terpeniye,Terpen’ye,Terpinna,Terpinnja,Terpinnya,Терпіння;46.96942;35.421;P;PPL;UA;;26;701403;;;4656;;60;Europe/Zaporozhye;2015-12-06;Ukraine;46.96942, 35.421
692672;Stavyshche;Stavyshche;Stavishche,Stavishhe,Stavyshche,Ставище;50.40051;29.52796;P;PPL;UA;;13;;;;7634;;181;Europe/Kiev;2013-04-04;Ukraine;50.40051, 29.52796
693062;Sovyets’kyy;Sovyets'kyy;Ichki,Ichki-Grammatikovo,Sovets'kij,Sovetskiy,Sovyets'kyy,Sovyets’kyy,Совєтський;45.34267;34.92463;P;PPLA2;UA;;11;;;;0;;17;Europe/Simferopol;2014-12-03;Ukraine;45.34267, 34.92463
693193;Solonka;Solonka;Solonka,Solonka Vel'ka,Solonka Velikaya,Солонка;49.75621;24.01028;P;PPL;UA;UA;15;;;;3391;;318;Europe/Kiev;2009-02-11;Ukraine;49.75621, 24.01028
693995;Shklo;Shklo;Shklo,Szklo,Szkło,Шкло;49.95675;23.54408;P;PPL;UA;;15;;;;5164;;265;Europe/Kiev;2012-01-18;Ukraine;49.95675, 23.54408
694369;Shalyhyne;Shalyhyne;Shaligine,Shalygino,Shalyhyne,Shul'gino,Shul’gino,Шалигине,Шалыгино;51.57167;34.12167;P;PPL;UA;;21;;;;3031;;160;Europe/Kiev;2014-06-27;Ukraine;51.57167, 34.12167
694864;Sambir;Sambir;Sambir,Sambira,Sambiras,Sambor,sambyr,sang bo er,Самбир,Самбор,Самбір,Սամբոր,سامبیر,桑博爾;49.5183;23.19752;P;PPLA2;UA;;15;;;;35197;;308;Europe/Kiev;2014-08-06;Ukraine;49.5183, 23.19752
695821;Ralevka;Ralevka;Radlovichi,Ralevka,Ralivka,Ралівка;49.50053;23.24058;P;PPL;UA;;15;;;;3926;;296;Europe/Kiev;2012-01-18;Ukraine;49.50053, 23.24058
695826;Rakiv Lis;Rakiv Lis;Rakiv Lis,Rakov Les,Rakovy Lyas,Раків Ліс;51.62174;24.92427;P;PPL;UA;;24;;;;2958;;153;Europe/Kiev;2012-01-18;Ukraine;51.62174, 24.92427
695859;Rakhiv;Rakhiv;Rachov,Rakhiv,Rakhov,Rakhovo,Рахов,Рахів;48.0526;24.20089;P;PPLA2;UA;;25;;;;14674;;439;Europe/Uzhgorod;2015-10-13;Ukraine;48.0526, 24.20089
696292;Prymors’k;Prymors'k;Nogaisk,Nogaysk,Primors'k,Primorsk,Primorskoye,Prymors'k,Prymors’k,Приморск,Приморськ;46.73479;36.34425;P;PPLA2;UA;;26;;;;13900;;13;Europe/Zaporozhye;2014-06-05;Ukraine;46.73479, 36.34425
698438;Ordzhonikidze;Ordzhonikidze;Ordzhonikidze,Ordzonikidze,Орджоникидзе,Орджонікідзе;44.96545;35.36583;P;PPL;UA;;11;;;;2773;;0;Europe/Simferopol;2012-05-30;Ukraine;44.96545, 35.36583
698953;Novyy Buh;Novyy Buh;Novi Bug,Novij Bug,Novo Bug,Novy Bug,Novyy Bug,Novyy Buh,Nowyi Bug,Новий Буг;47.69308;32.5216;P;PPLA2;UA;;16;;;;15646;;100;Europe/Kiev;2014-11-05;Ukraine;47.69308, 32.5216
699677;Novoaydar;Novoaydar;Novoajdar,Novoaydar,Новоайдар;48.96391;39.00583;P;PPLA2;UA;;14;;;;0;;53;Europe/Zaporozhye;2014-06-27;Ukraine;48.96391, 39.00583
699680;Novoarkhanhel’s’k;Novoarkhanhel's'k;Novoarkhangel's'k,Novoarkhangel'sk,Novoarkhangel’sk,Novoarkhanhel's'k,Novoarkhanhel’s’k,Новоархангельск,Новоархангельськ;48.65803;30.81821;P;PPLA2;UA;;10;;;;7624;;134;Europe/Kiev;2014-11-05;Ukraine;48.65803, 30.81821
700568;Mykolayiv;Mykolayiv;Mikolaiv,Mikolajow,Mikolayuv,Mikotajow,Mikotajów,Mikołajów,Mykolayiv,Nikolaev,Nikolayev,Миколаїв,Николаев;49.52372;23.98522;P;PPLA2;UA;;15;;;;14251;;290;Europe/Kiev;2014-08-06;Ukraine;49.52372, 23.98522
701075;Myrhorod;Myrhorod;MXR,Mirgorod,Myrhorod,mi er ge luo de,Миргород,米爾哥羅德;49.96854;33.60886;P;PPLA2;UA;;18;;;;41377;;100;Europe/Kiev;2014-07-08;Ukraine;49.96854, 33.60886
701466;Medenychi;Medenychi;Medenice,Medenichi,Medenici,Medenitsa,Medenitse,Medenitsy,Medenychi,Меденичі;49.43055;23.75073;P;PPL;UA;;15;;;;3219;;268;Europe/Kiev;2013-01-10;Ukraine;49.43055, 23.75073
702153;Mala Tokmachka;Mala Tokmachka;Mala Tokmachka,Malaya Tokmachka,Мала Токмачка;47.53563;35.89293;P;PPL;UA;;26;;;;2912;;65;Europe/Zaporozhye;2014-09-05;Ukraine;47.53563, 35.89293
703514;Kuty;Kuty;Kuti,Kutty,Kuty,Кути;48.25868;25.17946;P;PPL;UA;;06;;;;4160;;328;Europe/Kiev;2012-01-18;Ukraine;48.25868, 25.17946
704204;Krasnyy Lyman;Krasnyy Lyman;Krasnij Liman,Krasniy Liman,Krasny Liman,Krasnyj Liman,Krasnyy Liman,Krasnyy Lyman,Liman,Красний Лиман,Красный Лиман;48.98837;37.80225;P;PPLA2;UA;;05;;;;28200;;101;Europe/Kiev;2014-07-08;Ukraine;48.98837, 37.80225
704381;Krasnohvardiys’ke;Krasnohvardiys'ke;Antonovka,Krasnogvardeyskoye,Krasnogvardijs'ke,Krasnohvardiys'ke,Krasnohvardiys’ke,Kurman-Kemel'chi,Kurman-Kemeltschin,Kurman-Kemel’chi,Красногвардійське;45.50271;34.30134;P;PPLA2;UA;;11;;;;0;;36;Europe/Simferopol;2014-12-03;Ukraine;45.50271, 34.30134
704388;Krasnohrad;Krasnohrad;Konstantinograd,Krasnograd,Krasnohrad,Красноград;49.38009;35.44186;P;PPLA2;UA;;07;;;;21426;;159;Europe/Kiev;2015-05-06;Ukraine;49.38009, 35.44186
704565;Kozhanka;Kozhanka;Kozhanka,Кожанка;49.97933;29.73806;P;PPL;UA;;13;;;;2584;;207;Europe/Kiev;2012-01-18;Ukraine;49.97933, 29.73806
705799;Kirovs’ke;Kirovs'ke;Islam-Terek,Kirovs'ke,Kirovskoye,Kirovs’ke,Кіровське;45.22967;35.19987;P;PPLA2;UA;;11;;;;0;;25;Europe/Simferopol;2014-12-03;Ukraine;45.22967, 35.19987
707026;Kamenka-Na-Dnepre;Kamenka-Na-Dnepre;Kamyanka-Dniprovs'ka,Kamenka,Kamenka-Dneprovskaya,Kamenka-Na-Dnepre,Kam”yanka-Dniprovs’ka;47.48481;34.41146;P;PPLA2;UA;;26;;;;0;;18;Europe/Zaporozhye;2014-07-08;Ukraine;47.48481, 34.41146
707232;Kalanchak;Kalanchak;Kalanchak,Каланчак;46.25623;33.2907;P;PPLA2;UA;;08;;;;10673;;9;Europe/Kiev;2014-12-03;Ukraine;46.25623, 33.2907
707296;Izyaslav;Izyaslav;Izjaslav,Izyaslav,Izyaslavl',Izyaslavl’,Ізяслав,Изяслав;50.11947;26.82125;P;PPLA2;UA;;09;;;;17758;;231;Europe/Kiev;2014-09-05;Ukraine;50.11947, 26.82125
707529;Ispas;Ispas;Ispas,Испас;48.29734;25.27406;P;PPL;UA;;03;;;;4278;;323;Europe/Kiev;2012-01-18;Ukraine;48.29734, 25.27406
707860;Hurzuf;Hurzuf;Gursuf,Gurzuf,Hurzuf,Гурзуф;44.54624;34.27841;P;PPL;UA;;11;;;;8810;;81;Europe/Simferopol;2015-06-08;Ukraine;44.54624, 34.27841
709869;Dobre;Dobre;Dobre,Dobroye,Eski-Saray,Добре;44.86632;34.22661;P;PPL;UA;;11;;;;3327;;389;Europe/Simferopol;2015-06-08;Ukraine;44.86632, 34.22661
710202;Delyatyn;Delyatyn;Delatyn,Deliatin,Deljatin,Delyatin,Delyatino,Delyatyn,Diljatyn,Dilyatyn,Делятин;48.52354;24.62466;P;PPL;UA;;06;;;;7980;;423;Europe/Kiev;2013-01-10;Ukraine;48.52354, 24.62466
710409;Chop;Chop;Chap,Chop,Cop,Csap,Csapi,Csop,Czop,Tschop,Čop,Чоп;48.43198;22.20555;P;PPL;UA;;25;;;;8587;;105;Europe/Uzhgorod;2012-04-05;Ukraine;48.43198, 22.20555
710940;Chapayeve;Chapayeve;Chapaehve,Chapaevo,Chapayeve,Chapayevo,Чапаево,Чапаэве;49.36625;35.87486;P;PPL;UA;;07;;;;2800;;169;Europe/Kiev;2014-06-26;Ukraine;49.36625, 35.87486
711382;Brusyliv;Brusyliv;Brusiliv,Brusilov,Brussilow,Brusyliv,Брусилів;50.28449;29.52626;P;PPLA2;UA;;27;;;;5242;;166;Europe/Kiev;2014-10-01;Ukraine;50.28449, 29.52626
711999;Bobrovytsya;Bobrovytsya;Bobrovica,Bobrovicja,Bobrovisty,Bobrovitsa,Bobrovitsy,Bobrovytsya,Бобровица,Бобровиця;50.74693;31.3948;P;PPLA2;UA;;02;;;;11544;;131;Europe/Kiev;2014-11-05;Ukraine;50.74693, 31.3948
712003;Bibrka;Bibrka;Bibrka,Boberka,Bobrka,Boiberik,Boiberke,Boyberik,Boyberke,Bóbrka,Prachnik,Бобрка,Бібрка;49.64093;24.28874;P;PPL;UA;;15;;;;3832;;312;Europe/Kiev;2013-01-10;Ukraine;49.64093, 24.28874
712276;Berezovo;Berezovo;Berezna,Berezove,Berezovo,Березове,Березово;48.30943;23.474;P;PPL;UA;;25;;;;2885;;276;Europe/Uzhgorod;2012-05-06;Ukraine;48.30943, 23.474
712576;Inkerman;Inkerman;Belokamensk,Inkerman,Inkyerman,Novyye Shuli,Інкерман,Инкерман;44.61391;33.6098;P;PPL;UA;;20;;;;11793;;19;Europe/Simferopol;2015-08-07;Ukraine;44.61391, 33.6098
713154;Askaniya-Nova;Askaniya-Nova;Askania-Nova,Askanija-Nova,Askanija-Nowo,Askaniya-Nova,Chapli,Асканiя-Нова,Асканія-Нова;46.45135;33.86889;P;PPL;UA;;08;;;;3309;;30;Europe/Kiev;2015-02-06;Ukraine;46.45135, 33.86889
713633;Oleksandrivka;Oleksandrivka;Aleksandrovka,Alexandrowka,Oleksandrivka;48.70837;36.91561;P;PPLA2;UA;;05;;;;0;;118;Europe/Kiev;2014-07-08;Ukraine;48.70837, 36.91561
10172822;Aviatorskoe;Aviatorskoe;Aviators'ke,Aviatorskoe,Avіators'ke,Авиаторское,Авіаторське;48.36714;35.08132;P;PPL;UA;;04;;;;2403;;145;Europe/Kiev;2015-03-17;Ukraine;48.36714, 35.08132
616743;Druzhkivka;Druzhkivka;Druzhkivka,Druzhkovka,Дружковка,Дружківка;48.63013;37.55259;P;PPL;UA;;05;;;;62315;;101;Europe/Kiev;2014-06-26;Ukraine;48.63013, 37.55259
686818;Zuhres;Zuhres;Zugrehs,Zugres,Zuhres,Зугрес,Зугрэс;48.0114;38.26444;P;PPL;UA;;05;;;;19121;;115;Europe/Kiev;2014-06-26;Ukraine;48.0114, 38.26444
687645;Zarichchya;Zarichchya;Zarech'ye,Zarech’ye,Zaricca,Zarichchya,Zazheche,Заріччя;48.52144;24.64857;P;PPL;UA;;06;;;;3832;;433;Europe/Kiev;2012-01-18;Ukraine;48.52144, 24.64857
687652;Zarichne;Zarichne;Pogost Zazhechny,Pogost-Zarechnyy,Pohost Zarzeczny,Zarechnoye,Zarichne,Zaricne,Зарічне;51.8126;26.12902;P;PPLA2;UA;;19;;;;6671;;150;Europe/Kiev;2014-08-06;Ukraine;51.8126, 26.12902
687826;Zalishchyky;Zalishchyky;Zaleshchik,Zaleshchiki,Zaleshchyki,Zaleshiki,Zaleszczyki,Zalishchiki,Zalishchyky,Zalishhiki,Zalisiki,Заліщики;48.64331;25.73794;P;PPLA2;UA;;22;;;;9749;;179;Europe/Kiev;2014-09-05;Ukraine;48.64331, 25.73794
688373;Yasynuvata;Yasynuvata;IAsinovataia,Jasinovataja,Jasinuvata,Yasinovatara,Yasinovataya,Yasynuvata,Ясиноватая,Ясинувата;48.1298;37.8594;P;PPLA2;UA;;05;;;;37600;;263;Europe/Kiev;2014-12-03;Ukraine;48.1298, 37.8594
688533;Yalta;Yalta;Ialta,Jalta,Jalto,Jałta,Yalta,ya er ta,yalta,yaruta,Ялта,يالطا,იალტა,ヤルタ,雅尔塔,얄타;44.50218;34.16624;P;PPL;UA;;11;8449687;;;79509;;56;Europe/Simferopol;2015-06-08;Ukraine;44.50218, 34.16624
688749;Vylok;Vylok;Tisza-Ujlak,Tiszaujlak,Tiszaújlak,Vilok,Vulok,Vylok,Vülok,Вилок;48.10915;22.83865;P;PPL;UA;;25;;;;3292;;117;Europe/Uzhgorod;2012-05-06;Ukraine;48.10915, 22.83865
692016;Svyatogorsk;Svyatogorsk;Svjatogorsk,Svyatogorsk,Святогорск;49.03333;37.56667;P;PPL;UA;;05;;;;4900;;66;Europe/Kiev;2016-01-07;Ukraine;49.03333, 37.56667
693178;Solotvyn;Solotvyn;Solotvin,Solotvina,Solotvyn,Solotwina,Sołotwina,Zolotvina,Солотвин;48.70212;24.42212;P;PPL;UA;;06;;;;3803;;428;Europe/Kiev;2013-01-10;Ukraine;48.70212, 24.42212
694013;Shyshaky;Shyshaky;Shishaki,Shyshaky,Шишаки;49.88175;34.01118;P;PPL;UA;UA;18;;;;5671;;150;Europe/Kiev;2010-06-18;Ukraine;49.88175, 34.01118
694073;Shypyntsi;Shypyntsi;Shipentsi,Shipintsy,Shypyntsi,Sipinci,Шипинці;48.37677;25.74664;P;PPL;UA;;03;;;;2937;;182;Europe/Kiev;2012-01-18;Ukraine;48.37677, 25.74664
694392;Shabo;Shabo;Sba,Shaba,Shabo,Şba,Шабо;46.13262;30.38595;P;PPL;UA;;17;;;;6886;;15;Europe/Kiev;2015-02-06;Ukraine;46.13262, 30.38595
696280;Sartana;Sartana;Primorskoe,Primorskoye,Sartana,Приморское,Сартана;47.17436;37.69266;P;PPL;UA;;05;;;;10543;;13;Europe/Kiev;2014-09-05;Ukraine;47.17436, 37.69266
696966;Pidhaytsi;Pidhaytsi;Pdace,Pidgajci,Pidhajci,Pidhaytsi,Podgaytse,Podgaytsy,Podhace,Podhaicy,Podhajce,Podhajci,Підгайці;49.26853;25.13341;P;PPLA2;UA;;22;;;;3158;;359;Europe/Kiev;2014-09-05;Ukraine;49.26853, 25.13341
698232;Ostroh;Ostroh;Ostrog,Ostroh,Ostrug,Острог;50.32942;26.51425;P;PPLA2;UA;;19;;;;14251;;219;Europe/Kiev;2014-08-06;Ukraine;50.32942, 26.51425
698502;Olyka;Olyka;Olika,Olyka,Ołyka,Олика;50.71855;25.81251;P;PPL;UA;;24;;;;3074;;198;Europe/Kiev;2013-12-09;Ukraine;50.71855, 25.81251
698510;Ol'shanskoye;Ol'shanskoye;Ol'shans'ke,Olshanske,Olshanskiy,Ольшанське;47.18411;31.79375;P;PPL;UA;UA;16;;;;4500;;70;Europe/Kiev;2007-05-31;Ukraine;47.18411, 31.79375
698523;Vil’shanka;Vil'shanka;Ol'shanka,Olschanka,Ol’shanka,Vil'shanka,Vil’shanka,Вільшанка,Ольшанка;48.23604;30.87608;P;PPLA2;UA;;10;;;;0;;104;Europe/Kiev;2014-11-05;Ukraine;48.23604, 30.87608
698597;Olevs’k;Olevs'k;Olevs'k,Olevsk,Olevs’k,Олевськ;51.22482;27.65228;P;PPLA2;UA;;27;;;;0;;180;Europe/Kiev;2014-10-01;Ukraine;51.22482, 27.65228
698598;Olesko;Olesko;Oles'ko,Olesko,Олеско,Олесько,אולסקו;49.96233;24.89336;P;PPL;UA;;15;;;;1800;;232;Europe/Kiev;2012-01-18;Ukraine;49.96233, 24.89336
699100;Novotroyits’ke;Novotroyits'ke;Novotroic'ke,Novotroickoe,Novotroitskoye,Novotroyits'ke,Novotroyits’ke,Новотроицкое,Новотроїцьке;46.3556;34.33272;P;PPLA2;UA;;08;;;;0;;18;Europe/Kiev;2015-02-06;Ukraine;46.3556, 34.33272
699933;Nyzy;Nyzy;Nizi,Nizy,Nyzy,Низи,Низы;50.78281;34.78441;P;PPL;UA;;21;;;;2819;;126;Europe/Kiev;2014-06-27;Ukraine;50.78281, 34.78441
700606;Murovani Kurylivtsi;Murovani Kurylivtsi;Murovani Kurilivci,Murovani Kurylivtsi,Murovano-Kurilovtsy,Murovany-Kurilovtsy,Murovanye Kurilovtsy,Murovanyye Kurilovtsy,Муровані Курилівці;48.72348;27.51892;P;PPLA2;UA;;23;;;;5994;;172;Europe/Kiev;2014-10-01;Ukraine;48.72348, 27.51892
700750;Morskoye;Morskoye;Kapsikhor,Mors'ke,Morskoe,Морское,Морське;44.82593;34.80314;P;PPL;UA;UA;11;;;;2245;;30;Europe/Simferopol;2012-12-01;Ukraine;44.82593, 34.80314
701619;Masandra;Masandra;Masandra,Massandra,Масандра,Массандра;44.50958;34.18817;P;PPL;UA;;11;;;;6966;;216;Europe/Simferopol;2015-07-23;Ukraine;44.50958, 34.18817
703144;Lisovi Sorochyntsi;Lisovi Sorochyntsi;Lesovy,Lesovy Sorochintsy,Lesovye Sorochincy,Lesovyye Sorochintsy,Lisovi Sorochinci,Lisovi Sorochyntsi,Pesovy,Sorochincy,Velikie Sorochincy,Великие Сорочинцы,Лесовые Сорочинцы,Лісові Сорочинці,Сорочинцы;50.6892;32.32919;P;PPL;UA;;02;;;;4050;;147;Europe/Kiev;2013-05-08;Ukraine;50.6892, 32.32919
703903;Kruty;Kruty;Kruty,Круты;51.05974;32.10634;P;PPL;UA;;02;;;;1330;;126;Europe/Kiev;2010-07-21;Ukraine;51.05974, 32.10634
704881;Korotych;Korotych;Korotich,Korotych,Коротич,Коротыч;49.94737;36.03736;P;PPL;UA;;07;;;;4889;;138;Europe/Kiev;2014-06-26;Ukraine;49.94737, 36.03736
704949;Kornyn;Kornyn;Kornin,Kornyn,Корнин;50.0953;29.53581;P;PPL;UA;;27;;;;2605;;198;Europe/Kiev;2012-01-18;Ukraine;50.0953, 29.53581
705660;Klevan’;Klevan';Klevan',Klevan’,Klewan,Klewań,Клевань;50.74305;25.97628;P;PPL;UA;;19;;;;1458;;202;Europe/Kiev;2013-02-16;Ukraine;50.74305, 25.97628
705730;Kivertsi;Kivertsi;Kiverci,Kivertse,Kivertsi,Kivertsy,Kiwerce,Ківерці;50.83425;25.45821;P;PPLA2;UA;;24;;;;16509;;199;Europe/Kiev;2014-08-06;Ukraine;50.83425, 25.45821
706232;Khotiv;Khotiv;Khotiv,Khotov,Хотов,Хотів;50.33069;30.46836;P;PPL;UA;;13;;;;4569;;128;Europe/Kiev;2014-01-12;Ukraine;50.33069, 30.46836
707688;Illichivs’k;Illichivs'k;Il'ichevka,Il'ichevsk,Illichivs'k,Illichivs’k,Ilyitschovsk,Il’ichevka,Il’ichevsk,Il’ichëvsk,Іллічівськ,Ильичевск;46.30495;30.65478;P;PPL;UA;;17;;;;54102;;26;Europe/Kiev;2015-02-06;Ukraine;46.30495, 30.65478
708320;Horodnya;Horodnya;Gorodnja,Gorodnya,Horodnya,Городня;51.89085;31.59741;P;PPLA2;UA;;02;;;;13601;;137;Europe/Kiev;2014-11-05;Ukraine;51.89085, 31.59741
709493;Dubrovytsya;Dubrovytsya;Dabrowica,Dombrovitsa,Dubrovicja,Dubrovitsa,Dubrovytsya,Dąbrowica,Дубровиця;51.57438;26.56503;P;PPLA2;UA;;19;;;;9285;;153;Europe/Kiev;2014-08-06;Ukraine;51.57438, 26.56503
709540;Dubno;Dubno;Doubno,Dubnas,Dubno,du bu nuo,dwbnw,Дубно,דובנו,دوبنو,杜布諾;50.41694;25.73432;P;PPLA2;UA;;19;;;;37690;;199;Europe/Kiev;2014-08-06;Ukraine;50.41694, 25.73432
710718;Cherniyiv;Cherniyiv;Cerniiv,Cherneyev,Cherneyuv,Cherniyev,Cherniyiv,Czerniejow,Czerniejów,Черніїв;48.85658;24.71388;P;PPL;UA;;06;;;;3801;;272;Europe/Kiev;2012-01-18;Ukraine;48.85658, 24.71388
710739;Chernihivka;Chernihivka;Chernigivka,Chernigovka,Chernihivka,Tschernigowka,Черниговка,Чернігівка;47.19992;36.16148;P;PPLA2;UA;;26;;;;0;;105;Europe/Zaporozhye;2014-06-27;Ukraine;47.19992, 36.16148
710741;Chernivtsi;Chernivtsi;Chernevtsy,Chernivci,Chernivtsi,Chernovcy,Черновцы,Чернівці;48.54225;28.11473;P;PPLA2;UA;;23;;;;3065;;196;Europe/Kiev;2014-10-01;Ukraine;48.54225, 28.11473
710981;Bytkiv;Bytkiv;Bitkiv,Bitkov,Bitkuv,Bytkiv,Bytkov,Битків;48.62968;24.47398;P;PPL;UA;;06;;;;4112;;516;Europe/Kiev;2012-01-18;Ukraine;48.62968, 24.47398
711024;Bykivka;Bykivka;Bikivka,Bykivka,Bykovka,Биківка;50.29285;27.98314;P;PPL;UA;;27;;;;1911;;250;Europe/Kiev;2013-02-08;Ukraine;50.29285, 27.98314
711536;Borzna;Borzna;Borsna,Borzna,bo er zi na,boruzuna,bwrzna,Борзна,Բորզնա,بورزنا,ボルズナー,博爾茲納;51.25464;32.4269;P;PPLA2;UA;;02;;;;11363;;130;Europe/Kiev;2014-11-05;Ukraine;51.25464, 32.4269
711623;Borova;Borova;Borova,Borovaja,Borovaya,Borowaja,Боровая;49.3777;37.62136;P;PPLA2;UA;;07;;;;6589;;88;Europe/Kiev;2014-07-08;Ukraine;49.3777, 37.62136
712300;Berezivka;Berezivka;Berezivka,Berezovka,Berëzovka,Березовка,Березівка;49.43935;35.70736;P;PPL;UA;;07;;;;1618;;119;Europe/Kiev;2015-05-06;Ukraine;49.43935, 35.70736
712920;Zaritcha;Zaritcha;Zarech'e,Заречье;49.71667;29.23333;P;PPL;UA;;27;;;;2178;;215;Europe/Kiev;2013-02-16;Ukraine;49.71667, 29.23333
8504651;Sofiyivska Borschagivka;Sofiyivska Borschagivka;Sofievskaja Borshhagovka,Софиевская Борщаговка;50.41005;30.36724;P;PPL;UA;;13;;;;6571;;163;Europe/Kiev;2013-03-17;Ukraine;50.41005, 30.36724
689584;Vil’nyans’k;Vil'nyans'k;Chervonoarmeyskoye,Krasnoarmeyskoye,Sofiyevka,Vil'njans'k,Vil'nyans'k,Vil’nyans’k,Vol'nyansk,Vol’nyansk,Вільнянськ;47.94381;35.43539;P;PPLA2;UA;;26;;;;0;;144;Europe/Zaporozhye;2014-06-05;Ukraine;47.94381, 35.43539
689736;Vesele;Vesele;Vesele,Veseloye,Vesëloye,Веселе;47.01479;34.91504;P;PPLA2;UA;;26;;;;10683;;76;Europe/Zaporozhye;2014-12-03;Ukraine;47.01479, 34.91504
689830;Verkhnya Syrovatka;Verkhnya Syrovatka;Verkh.Syrovatka,Verkhnja Sirovatka,Verkhnya Syrovatka,Verkhnyaya Syrovatka,Верх.Сыроватка,Верхня Сироватка;50.82902;34.95861;P;PPL;UA;;21;;;;3669;;142;Europe/Kiev;2012-11-08;Ukraine;50.82902, 34.95861
689916;Verkhn’odniprovs’k;Verkhn'odniprovs'k;Verkhn'odniprovs'k,Verkhne-Dnyeprovsk,Verkhnedneprovsk,Verkhn’odniprovs’k,Верхнеднепровск;48.65242;34.33457;P;PPLA2;UA;;04;;;;0;;107;Europe/Kiev;2014-07-08;Ukraine;48.65242, 34.33457
690434;Vary;Vary;Mezovari,Mezővári,Vari,Vary,Vári,Вари;48.12207;22.71281;P;PPL;UA;;25;;;;2998;;113;Europe/Uzhgorod;2012-05-06;Ukraine;48.12207, 22.71281
691422;Tomashpil’;Tomashpil';Tomashpil',Tomashpil’,Tomashpol',Tomashpol’,Томашпіль;48.54256;28.51684;P;PPLA2;UA;;23;;;;0;;240;Europe/Kiev;2014-10-01;Ukraine;48.54256, 28.51684
691708;Teplyk;Teplyk;Teplik,Teplyk,Теплик;48.66566;29.74504;P;PPLA2;UA;;23;;;;6604;;201;Europe/Kiev;2014-10-01;Ukraine;48.66566, 29.74504
692129;Svalyava;Svalyava;Svalava,Svaljava,Svalva,Svalyava,Свалява;48.54853;22.99578;P;PPL;UA;;25;;;;16507;;208;Europe/Uzhgorod;2012-04-05;Ukraine;48.54853, 22.99578
692832;Starobil’s’k;Starobil's'k;Bel'skiy Gorodok,Bel’skiy Gorodok,Staraya Belaya,Starobel'sk,Starobel’sk,Starobil's'k,Starobil’s’k,Старобельск,Старобільськ;49.27832;38.91069;P;PPLA2;UA;;14;;;;22000;;62;Europe/Zaporozhye;2014-12-03;Ukraine;49.27832, 38.91069
693301;Sokal’;Sokal';Sokal',Sokal’,Сокаль;50.47438;24.28288;P;PPLA2;UA;;15;;;;21451;;198;Europe/Kiev;2014-08-06;Ukraine;50.47438, 24.28288
693920;Shpola;Shpola;Shpola,Шпола;49.00687;31.39471;P;PPLA2;UA;;01;;;;18689;;150;Europe/Kiev;2014-11-05;Ukraine;49.00687, 31.39471
694148;Shevchenkove;Shevchenkove;Shevchenko,Shevchenkove,Shevchenkovo,Шевченкове,Шевченково;46.86289;32.20387;P;PPL;UA;;16;;;;3031;;44;Europe/Kiev;2014-02-09;Ukraine;46.86289, 32.20387
694752;Savyntsi;Savyntsi;Savinci,Savincy,Savintsi,Savintsy,Savyntsi,Sawinzy,Савинцы,Савинці;49.40257;37.06266;P;PPL;UA;;07;;;;5326;;101;Europe/Kiev;2014-06-27;Ukraine;49.40257, 37.06266
695459;Ropcha;Ropcha;Ropcha,Ropche,Ропча;48.11988;25.77421;P;PPL;UA;;03;;;;3189;;344;Europe/Kiev;2012-01-18;Ukraine;48.11988, 25.77421
695670;Reni;Reni;Reni,Рени,Рені;45.45727;28.29317;P;PPLA2;UA;;17;;;;19719;;29;Europe/Kiev;2014-11-05;Ukraine;45.45727, 28.29317
696017;Putyla;Putyla;Putila,Putyla,Storonets Putilla,Путила;47.98869;25.09455;P;PPLA2;UA;;03;;;;0;;629;Europe/Kiev;2014-10-01;Ukraine;47.98869, 25.09455
696938;Podgortsy;Podgortsy;Pidhorodtsi,Podgorcy,Podgortse,Podgortsy,Podhorce,Подгорцы;49.94611;24.9795;P;PPL;UA;;15;;;;1076;;313;Europe/Kiev;2012-01-18;Ukraine;49.94611, 24.9795
697006;Pochayiv;Pochayiv;Pochaev,Pochaiv,Pochayev,Pochayiv,Pochayuv Stary,Почаев;50.00509;25.51183;P;PPL;UA;;22;;;;8075;;372;Europe/Kiev;2012-01-18;Ukraine;50.00509, 25.51183
699035;Novovolyns’k;Novovolyns'k;Novovolins'k,Novovolyns'k,Novovolynsk,Novovolynskiy,Novovolyns’k,Нововолинськ,Нововолынск;50.72576;24.16265;P;PPL;UA;;24;;;;57800;;237;Europe/Kiev;2012-11-08;Ukraine;50.72576, 24.16265
699553;Novohrad-Volyns’kyy;Novohrad-Volyns'kyy;Novograd Volynski,Novograd-Volins'kij,Novograd-Volynsk,Novograd-Volynskij,Novograd-Volynskiy,Novohrad-Volyns'kyy,Novohrad-Volyns’kyy,Nowograd Wolynsk,Zvyagel',Zvyagel’,Zvydgel,Zwiahl,Новоград-Волинський,Новоград-Волынский;50.59412;27.6165;P;PPLA2;UA;;27;;;;55925;;218;Europe/Kiev;2014-10-01;Ukraine;50.59412, 27.6165
699839;Nova Kakhovka;Nova Kakhovka;Naujoji Kachovka,Nova Kachovka,Nova Kahovka,Nova Kajovka,Nova Kakhovka,Novaja Kakhovka,Novaya Kakhova,Novaya Kakhovka,Novaya Kaxovka,Novo Kakhovka,Nowa Kachowka,nobakahouka,nwwa kakhwfka,xin ka huo fu ka,Нова Каховка,Новая Каховка,Նովայա Կախովկա,نووا کاخوفکا,新卡霍夫卡,노바카호우카;46.75451;33.34864;P;PPL;UA;;08;;;;50672;;15;Europe/Kiev;2015-01-07;Ukraine;46.75451, 33.34864
699956;Nyzhnya Krynka;Nyzhnya Krynka;Nizhnja Krinka,Nizhnyaya Krinka,Nizhnyaya Krynka,Nyzhnya Krynka,Нижня Кринка;48.1135;38.16064;P;PPL;UA;;05;;;;14253;;173;Europe/Kiev;2014-06-05;Ukraine;48.1135, 38.16064
700159;Mykolayivka;Mykolayivka;Mikolaivka,Mykolayivka,Nikolayevka,Nikolayevka Vtoraya,Миколаївка;47.54135;30.75615;P;PPLA2;UA;;17;;;;3629;;41;Europe/Kiev;2014-11-05;Ukraine;47.54135, 30.75615
700607;Murovanoye;Murovanoye;Laszki Murowane,Lyashki Muravane,Lyashki Murovany,Murovane,Murovanoye,Murovany,Муроване;49.52143;22.9367;P;PPL;UA;;15;;;;4251;;326;Europe/Kiev;2012-01-18;Ukraine;49.52143, 22.9367
700997;Miskhor;Miskhor;Miskhor,Мисхор,Місхор;44.43068;34.07965;P;PPL;UA;;11;;;;30000;;140;Europe/Simferopol;2015-06-08;Ukraine;44.43068, 34.07965
701031;Myronivka;Myronivka;Mironivka,Mironovka,Myronivka,Мироновка,Миронівка;49.66007;30.98225;P;PPLA2;UA;;13;;;;12871;;122;Europe/Kiev;2014-10-01;Ukraine;49.66007, 30.98225
701233;Mykhaylivka;Mykhaylivka;Mihajlivka,Mikhajlivka,Mikhaylovka,Mykhaylivka,Михайлівка;47.27235;35.22235;P;PPLA2;UA;;26;;;;13216;;84;Europe/Zaporozhye;2014-06-05;Ukraine;47.27235, 35.22235
703261;Lenine;Lenine;Lenine,Lenino,Sem'-Kolodezey,Sem’-Kolodezey,Yedi Kuyu,Ленино,Леніне,Լենինո;45.29857;35.77708;P;PPLA2;UA;;11;;;;8297;;22;Europe/Simferopol;2014-04-30;Ukraine;45.29857, 35.77708
703494;Kuybysheve;Kuybysheve;Kujbisheve,Kujbyshevo,Kuybysheve,Kuybyshevo,Куйбишеве,Куйбышево;47.358;36.64908;P;PPLA2;UA;;26;;;;7832;;201;Europe/Zaporozhye;2014-06-26;Ukraine;47.358, 36.64908
704972;Koreyiz;Koreyiz;Koreiz,Koreyiz,Кореиз,Кореїз;44.43374;34.08516;P;PPL;UA;;11;;;;8000;;170;Europe/Simferopol;2015-06-08;Ukraine;44.43374, 34.08516
705307;Koloniya Zastav’ye;Koloniya Zastav'ye;Koloniya Zastav'ye,Koloniya Zastav’ye,Zastav'ye,Zastav’ye;50.81667;27.03333;P;PPL;UA;;19;;;;3642;;197;Europe/Kiev;2012-01-18;Ukraine;50.81667, 27.03333
705494;Kodra;Kodra;Kodra,Кодра;50.59488;29.55873;P;PPL;UA;;13;;;;1685;;146;Europe/Kiev;2013-04-04;Ukraine;50.59488, 29.55873
705689;Klavdiyevo-Tarasove;Klavdiyevo-Tarasove;Dachi Klavdiyevo,Klavdievo-Tarasove,Klavdievo-Tarasovo,Klavdiyevo-Tarasove,Klavdiyevo-Tarasovo,Клавдиево-Тарасово,Клавдіэво-Тарасове,Клавдієво-Тарасове;50.58416;30.01134;P;PPL;UA;;13;;;;4685;;168;Europe/Kiev;2013-04-04;Ukraine;50.58416, 30.01134
706612;Katyuzhanka;Katyuzhanka;Katiuzhanka,Katjuzhanka,Katyuzhanka,Катюжанка;50.80595;30.13763;P;PPL;UA;;13;Vyshhorod Raion (undefined);;;4046;;139;Europe/Kiev;2014-01-10;Ukraine;50.80595, 30.13763
707099;Kalush;Kalush;Kalouch,Kalush,Kalusz,Katusz,Kałusz,karushu,Калуш,קאַלוש,カルシュ;49.01187;24.37308;P;PPLA2;UA;;06;707098;;;67698;;279;Europe/Kiev;2014-09-05;Ukraine;49.01187, 24.37308
709353;Romaniv;Romaniv;Dsershinsk,Dzerzhinsk,Dzerzhyns'k,Dzerzhyns’k,Romaniv,Romanov,Романів;50.14802;27.93124;P;PPLA2;UA;;27;;;;0;;239;Europe/Kiev;2014-10-01;Ukraine;50.14802, 27.93124
710653;Chornyanka;Chornyanka;Chernen'ka,Chernen’ka,Chernjanka,Chernyanka,Chornjanka,Chornyanka,Чернянка,Чорнянка;46.65222;33.35904;P;PPL;UA;;08;;;;3363;;14;Europe/Kiev;2015-01-07;Ukraine;46.65222, 33.35904
710660;Chernyakhivka;Chernyakhivka;Chernjakhovka,Chernyakhivka,Черняховка;50.21882;31.93082;P;PPL;UA;;13;;;;1002;;124;Europe/Kiev;2013-03-24;Ukraine;50.21882, 31.93082
710669;Chornukhy;Chornukhy;Chernukhi,Chornukhi,Chornukhy,Чернухи,Чорнухи;50.26732;32.94196;P;PPLA2;UA;;18;;;;3075;;114;Europe/Kiev;2014-12-03;Ukraine;50.26732, 32.94196
711134;Burshtyn;Burshtyn;Ambar,Ambr,Ambra,Ambre,Baernsten,Barnsteen,Burschtyn,Burshtin,Burshtyn,Burstron,Bursztyn,Bärnsten,Gintaras,Ho phach,Hổ phách,Jantar,Jantar',Merevaik,Meripihka,Raf,Rav,Sucino,Sukceno,ampar,burushutin,hobag,hu po,kohaku,Âmbar,Бурштин,Бурштын,Янтарь,ענבר,அம்பர்,コハク,ブルシュティン,琥珀,호박;49.25867;24.62777;P;PPL;UA;;06;;;;14729;;243;Europe/Kiev;2013-01-10;Ukraine;49.25867, 24.62777
712441;Berdychiv;Berdychiv;Berdichen,Berdichev,Berdichiv,Berdiciv,Berditschew,Berdychiv,Berdyciv,Berdycivas,Berdyciw,Berdyczow,Berdyczów,Berdytchiv,Berdytjiv,Berdytschiw,Berdytsiv,Berdytsjiv,Berdytšiv,Berdyčiv,Berdyčivas,Berdyčiw,Berdîciv,Berdıçiv,beleudichiu,berudichifu,bie er ji qie fu,brdychyf,brdyzb,byrdytshyf,Бердичев,Бердичив,Бердичів,Բերդիչև,בערדיטשעוו,ברדיצב,بردیچیف,بيرديتشيف,ベルディチフ,別爾基切夫,베르디치우;49.89928;28.60235;P;PPLA2;UA;;27;;;;86250;;250;Europe/Kiev;2014-10-01;Ukraine;49.89928, 28.60235
712886;Balta;Balta;Balta,Balta i Ukraina,Bałta,ba er ta,balta,balta  awkrayn,Балта,Բալտա,بالتا,بالتا، اوکراین,巴爾塔;47.93548;29.61982;P;PPLA2;UA;;17;;;;19220;;123;Europe/Kiev;2014-11-05;Ukraine;47.93548, 29.61982
713203;Armyans’k;Armyans'k;Armjans'k,Armjansk,Armyans'k,Armyansk,Armyans’k,Армянск,Армянськ;46.10919;33.69206;P;PPL;UA;;11;8449689;;;26000;;16;Europe/Simferopol;2013-01-27;Ukraine;46.10919, 33.69206
713749;Okhtyrka;Okhtyrka;Achtyrka,Akhtirka,Akhtyrka,Okhtirka,Okhtyrka,Ахтырка,Охтирка;50.31036;34.89879;P;PPLA2;UA;;21;;;;49818;;111;Europe/Kiev;2014-07-08;Ukraine;50.31036, 34.89879
686762;Ivano-Frankove;Ivano-Frankove;Imeni Ivana Franko,Ivana Franko,Ivano-Frankove,Ivano-Frankovo,Janow,Janów,Yanov,Yanuv,Івано-Франкове,Ивано-Франково;49.91978;23.72913;P;PPL;UA;;15;;;;6223;;307;Europe/Kiev;2013-02-14;Ukraine;49.91978, 23.72913
687245;Zhashkiv;Zhashkiv;Zasashkhov,Zaskiv,Zhashkiv,Zhashkov,Жашков,Жашків;49.24545;30.1102;P;PPLA2;UA;;01;;;;15264;;236;Europe/Kiev;2014-11-05;Ukraine;49.24545, 30.1102
687790;Железный порт;Zheleznyj port;Zaliznij port,Zhelezny Port,Zheleznyj port,Zheleznyy Port,Zhelzeny Port,Железный порт,Залізний порт;46.11667;32.28333;P;PPL;UA;UA;08;;;;1528;;0;Europe/Kiev;2012-12-01;Ukraine;46.11667, 32.28333
689834;Verkhnya Rozhanka;Verkhnya Rozhanka;Rozhanka Vizhna,Verkhnja Rozhanka,Verkhnjaja Rozhanka,Verkhnya Rozhanka,Verkhnyaya Rozhanka,Верхня Рожанка,Верхняя Рожанка;48.7805;23.51545;P;PPL;UA;;15;;;;1134;;707;Europe/Kiev;2012-05-06;Ukraine;48.7805, 23.51545
691179;Truskavets;Truskavets;Truskavec,Truskavec',Truskavets,Truskawiec,Трускавец,Трускавець;49.27837;23.50618;P;PPL;UA;;15;;;;26600;;356;Europe/Kiev;2013-01-10;Ukraine;49.27837, 23.50618
691606;Terny;Terny;Terni,Terny,Tërny,Терни;50.98916;33.9707;P;PPL;UA;;21;;;;3661;;138;Europe/Kiev;2012-11-08;Ukraine;50.98916, 33.9707
692975;Stakhanov;Stakhanov;Kadijewka,Kadiyevka,Ssergo,Stachanow,Stakhanov,Стаханов;48.56818;38.64352;P;PPL;UA;;14;;;;84425;;217;Europe/Zaporozhye;2014-06-05;Ukraine;48.56818, 38.64352
693176;Solotvyno;Solotvyno;Aknaszlatina,Solotvina,Solotvino,Solotvyna,Solotvyno,Солотвино;47.94604;23.87035;P;PPL;UA;;25;;;;8931;;286;Europe/Uzhgorod;2012-06-06;Ukraine;47.94604, 23.87035
693581;Slavuta;Slavuta;Slavuta,Slawuta,Sslawuta,Славута;50.30155;26.86506;P;PPLA2;UA;;09;;;;33080;;218;Europe/Kiev;2014-09-05;Ukraine;50.30155, 26.86506
694320;Shchebetovka;Shchebetovka;Otus,Otuz,Otuzy,Shchebetovka,Shebetovka,Shhebetovka,Щебетовка;44.93821;35.158;P;PPL;UA;;11;;;;3213;;77;Europe/Simferopol;2015-08-07;Ukraine;44.93821, 35.158
694715;Sedniv;Sedniv;Cedniv,Cеднів,Sednev,Sedniv,Sednëv,Седнев;51.64473;31.56497;P;PPL;UA;;02;;;;1222;;138;Europe/Kiev;2012-02-02;Ukraine;51.64473, 31.56497
695798;Rozsypne;Rozsypne;Rassypnoy,Rassypnoye,Rozsipne,Rozsypne,Розсипне;48.14966;38.57619;P;PPL;UA;;05;;;;4911;;250;Europe/Kiev;2014-06-05;Ukraine;48.14966, 38.57619
696743;Pokotylivka;Pokotylivka;Pokatilovka,Pokotilivka,Pokotilovka,Pokotylivka,Покотилівка;49.91343;36.17511;P;PPL;UA;;07;;;;9962;;153;Europe/Kiev;2014-01-12;Ukraine;49.91343, 36.17511
697325;Petrove;Petrove;Petrova,Petrove,Petrovo,Петрове,Петрово;48.32467;33.25617;P;PPLA2;UA;;10;;;;8252;;104;Europe/Kiev;2014-11-05;Ukraine;48.32467, 33.25617
698825;Obertyn;Obertyn;Obertin,Obertyn,Обертин;48.70032;25.17012;P;PPL;UA;;06;;;;3264;;294;Europe/Kiev;2012-01-18;Ukraine;48.70032, 25.17012
701845;Mareyka;Mareyka;Maryinka,Mar'inka,Mareyka,Mar’inka,Mar”yinka,Марьинка,Мар’їнка;47.94527;37.50544;P;PPLA2;UA;;05;;;;0;;139;Europe/Kiev;2014-07-08;Ukraine;47.94527, 37.50544
702486;Lyubar;Lyubar;Ljubar,Lyubar,Любар;49.92045;27.75918;P;PPLA2;UA;;27;;;;2351;;236;Europe/Kiev;2014-10-01;Ukraine;49.92045, 27.75918
702612;Lukiv;Lukiv;Lukiv,Lukov,Lukuv,Луків;51.0521;25.40059;P;PPL;UA;;24;;;;3043;;177;Europe/Kiev;2012-07-04;Ukraine;51.0521, 25.40059
702760;Lozova;Lozova;Losowa,Losowaja,Lozova,Lozovaja,Lozovaya,Lozowa,luo zuo wa,Łozowa,Лозова,Лозовая,Լոզովայա,洛佐瓦;48.88937;36.31755;P;PPLA2;UA;;07;;;;62311;;185;Europe/Kiev;2014-06-27;Ukraine;48.88937, 36.31755
702972;Lysychans’k;Lysychans'k;Lisichans'k,Lisichansk,Lysychans'k,Lysychans’k,Лисичанск,Лисичанськ;48.90485;38.44207;P;PPL;UA;;14;;;;111600;;183;Europe/Zaporozhye;2014-06-05;Ukraine;48.90485, 38.44207
704343;Krasnopillya;Krasnopillya;Krasnopilla,Krasnopillja,Krasnopillya,Krasnopol'e,Krasnopol'ye,Krasnopole,Krasnopol’ye,Краснополье,Краснопілля;50.77458;35.25965;P;PPLA2;UA;;21;;;;8603;;175;Europe/Kiev;2014-11-05;Ukraine;50.77458, 35.25965
704573;Kozelets’;Kozelets';Koselez,Kozelec,Kozelec',Kozelets,Kozelets',Kozelets’,Козелец,Козелець;50.91334;31.1214;P;PPLA2;UA;;02;;;;8305;;112;Europe/Kiev;2014-11-05;Ukraine;50.91334, 31.1214
704608;Kivsharivka;Kivsharivka;Kivsarivka,Kivsharivka,Kovsharov,Kovsharovka,Ківшарівка;49.63096;37.68821;P;PPL;UA;;07;;;;19738;;95;Europe/Kiev;2014-01-12;Ukraine;49.63096, 37.68821
705560;Knyazhichi;Knyazhichi;Knjazhichi,Knyazhichi,Княжичи;50.46275;30.78369;P;PPL;UA;;13;;;;5207;;111;Europe/Kiev;2010-07-21;Ukraine;50.46275, 30.78369
706271;Khorostkiv;Khorostkiv;Chorostkow,Chorostków,Horostkiv,Khorostkiv,Khorostkov,Khorostkuv,Хоростків;49.21114;25.92165;P;PPL;UA;;22;;;;7034;;306;Europe/Kiev;2012-01-18;Ukraine;49.21114, 25.92165
706757;Soledar;Soledar;Imeni Karla Libknekhta,Karla Libknekhta,Karlo-Libknekhtovo,Karlo-Libknekhtovsk,Poselok,Soledar,Соледар;48.67935;38.08902;P;PPL;UA;;05;;;;12662;;82;Europe/Kiev;2014-06-26;Ukraine;48.67935, 38.08902
707155;Kalynivka;Kalynivka;Kalinivka,Kalinovka,Kalinovskiy,Kalynivka,Калиновка,Калинівка;49.45389;28.52608;P;PPLA2;UA;;23;;;;19315;;280;Europe/Kiev;2014-12-03;Ukraine;49.45389, 28.52608
708366;Horodyshche;Horodyshche;Gorodishche,Gorodishhe,Horodyshche,Imeni G.I. Petrovskogo,Poselok Imeni G.I. Petrovskogo,Posëlok Imeni G.I. Petrovskogo,Городище;49.28489;31.44513;P;PPLA2;UA;;01;;;;15063;;114;Europe/Kiev;2014-11-05;Ukraine;49.28489, 31.44513
709276;Energodar;Energodar;Ehnergodar,Energodar,Енергодар,Энергодар;47.49865;34.6574;P;PPL;UA;;26;;;;55800;;29;Europe/Zaporozhye;2010-08-16;Ukraine;47.49865, 34.6574
709547;Dublyany;Dublyany;Dobrowlany,Dublany,Dubljani,Dublyany,Дубляни;49.49832;23.38718;P;PPL;UA;;15;;;;2086;;281;Europe/Kiev;2012-01-18;Ukraine;49.49832, 23.38718
710243;Davydivka;Davydivka;Davideni,Davidino,Davidivka,Davidovka,Davydivka,Davydovka,Давидівка;48.12099;25.56461;P;PPL;UA;;03;;;;2981;;404;Europe/Kiev;2012-01-18;Ukraine;48.12099, 25.56461
710400;Chortkiv;Chortkiv;Chertkov,Chortkiv,Chortkov,Chortkuv,Czortkow,Czortków,Tschortkiw,Tschortkow,Чортков,Чортків;49.01709;25.79804;P;PPLA2;UA;;22;;;;28855;394;227;Europe/Kiev;2014-09-05;Ukraine;49.01709, 25.79804
710715;Chornobayivka;Chornobayivka;Chernoayevka,Chernobayevka,Chernovayevka,Chornobaivka,Chornobayivka,Cornobaivka,Чорнобаївка;46.69411;32.55371;P;PPL;UA;;08;;;;8954;;19;Europe/Kiev;2014-12-03;Ukraine;46.69411, 32.55371
710892;Chechel’nyk;Chechel'nyk;Chechel'nik,Chechel'nyk,Chechel’nik,Chechel’nyk,Chel'nik,Chel’nik,Чечельник;48.21509;29.36728;P;PPLA2;UA;;23;;;;5100;;168;Europe/Kiev;2014-10-01;Ukraine;48.21509, 29.36728
712200;Bezlyudivka;Bezlyudivka;Bezljudivka,Bezljudovka,Bezlyudivka,Bezlyudovka,Безлюдовка,Безлюдівка;49.87547;36.26539;P;PPL;UA;;07;;;;9294;;105;Europe/Kiev;2014-01-12;Ukraine;49.87547, 36.26539
712508;Bilozerka;Bilozerka;Belozerka,Belozërka,Bilozerka,Білозерка;46.6248;32.44251;P;PPLA2;UA;;08;;;;9348;;18;Europe/Kiev;2014-12-03;Ukraine;46.6248, 32.44251
712930;Balaklava;Balaklava;Balaclava,Balaklava,Balaklavo,Balaklawa,Baliklava,Baliqlava,Balıklava,Balıqlava,Bałakława,ballakeullaba,barakuravu~a,Балаклава,バラクラヴァ,발라클라바;44.51118;33.59942;P;PPLX;UA;;20;;;;20000;;33;Europe/Simferopol;2015-08-07;Ukraine;44.51118, 33.59942
8468760;Novoyavorivs'k;Novoyavorivs'k;Novojavorivs'k,Novojavorovsk,Новояворовск,Новояворівськ;49.93023;23.57357;P;PPL;UA;;15;;;;28807;;297;Europe/Kiev;2013-02-19;Ukraine;49.93023, 23.57357
687433;Zdovbytsya;Zdovbytsya;Zdolbica,Zdolbitsa,Zdovbicja,Zdovbytsya,Zdołbica,Здовбиця;50.49607;26.24111;P;PPL;UA;;19;;;;4858;;199;Europe/Kiev;2013-01-10;Ukraine;50.49607, 26.24111
687578;Zastavna;Zastavna;Zastavka,Zastavna,Zastazna,Заставна;48.52307;25.84369;P;PPLA2;UA;;03;;;;8536;;239;Europe/Kiev;2014-10-01;Ukraine;48.52307, 25.84369
688052;Yurkivka;Yurkivka;Jurkovka,Urkivka,Yurkivka,Yurkovka,Юрковка,Юрківка;49.01256;31.10125;P;PPL;UA;;01;;;;2887;;142;Europe/Kiev;2014-06-26;Ukraine;49.01256, 31.10125
688127;Yerky;Yerky;Ehrki,Erki,Yerki,Yerky,Ерки,Эрки;48.99062;30.98818;P;PPL;UA;;01;;;;4159;;123;Europe/Kiev;2014-06-27;Ukraine;48.99062, 30.98818
688191;Yelyzavethradka;Yelyzavethradka;Ehlizavetgradka,Elizavetgradka,Yelisavetgradka,Yelizavetgradka,Yelyzavethradka,Елизаветградка,Элизаветградка;48.80381;32.4046;P;PPL;UA;;10;;;;1673;;161;Europe/Kiev;2014-06-26;Ukraine;48.80381, 32.4046
688956;Vorzel’;Vorzel';Dachi Vorzel',Dachi Vorzel’,Vorzel',Vorzel’,Ворзель;50.5444;30.15305;P;PPL;UA;;13;;;;8500;;166;Europe/Kiev;2013-04-04;Ukraine;50.5444, 30.15305
689003;Voronovytsya;Voronovytsya;Voronovicja,Voronovitsa,Voronovitsy,Voronovytsya,Вороновиця;49.10954;28.68078;P;PPL;UA;;23;;;;6389;;287;Europe/Kiev;2012-01-18;Ukraine;49.10954, 28.68078
690247;Velyka Lepetykha;Velyka Lepetykha;Bol'shaya Lepatikha,Bol'shaya Lepetikha,Bolschaja Lepeticha,Bol’shaya Lepatikha,Bol’shaya Lepetikha,Velika Lepetikha,Velikaya Lepetikha,Velyka Lepetykha,Велика Лепетиха;47.17572;33.94362;P;PPLA2;UA;;08;;;;9511;;46;Europe/Kiev;2014-12-03;Ukraine;47.17572, 33.94362
690679;Nyzhni Petrivtsi;Nyzhni Petrivtsi;Nizhniye Petrovtsy,Nizni Petrivci,Nyzhni Petrivtsi,Unter-Petrouts,Нижні Петрівці;48.02847;25.72327;P;PPL;UA;;03;;;;2887;;390;Europe/Kiev;2012-01-18;Ukraine;48.02847, 25.72327
691693;Terebovlya;Terebovlya;Terebovlja,Terebovlya,Trebozlya,Trembovlya,Trembowla,Теребовля;49.30187;25.70997;P;PPLA2;UA;;22;;;;13153;;350;Europe/Kiev;2014-09-05;Ukraine;49.30187, 25.70997
692317;Subottsi;Subottsi;Subbotcy,Subbotets,Subbottsy,Subotci,Subottsi,Субботцы,Суботці;48.65545;32.52093;P;PPL;UA;;10;;;;3095;;170;Europe/Kiev;2012-01-18;Ukraine;48.65545, 32.52093
693615;Skvyra;Skvyra;Skvira,Skvyra,Сквира;49.73177;29.66569;P;PPLA2;UA;;13;;;;17452;;201;Europe/Kiev;2014-10-01;Ukraine;49.73177, 29.66569
694278;Shchyrets’;Shchyrets';Shcherzhets,Shchezhets,Shchirets,Shchyrets',Shchyrets’,Shhirec,Shhiret',Shirets,Szczerzec,Щиреть,Щирец;49.65096;23.87426;P;PPL;UA;;15;;;;5733;;260;Europe/Kiev;2013-03-05;Ukraine;49.65096, 23.87426
694467;Serhiyivka;Serhiyivka;Sergeevka,Sergeyevka,Sergeyevka-Bay,Serghieste-Noui,Serghieşte-Noui,Sergiivka,Sergiyivka,Serhiyivka,Сергеевка,Сергіївка;46.0272;30.37682;P;PPL;UA;;17;;;;5045;;13;Europe/Kiev;2015-02-06;Ukraine;46.0272, 30.37682
694548;Sencha;Sencha;Sencha,Сенча;50.25482;33.34602;P;PPL;UA;;18;;;;2953;;111;Europe/Kiev;2013-07-06;Ukraine;50.25482, 33.34602
695789;Ratne;Ratne;Rafno,Ratne,Ratno,Ратне;51.6683;24.5303;P;PPLA2;UA;;24;;;;9081;;156;Europe/Kiev;2014-08-06;Ukraine;51.6683, 24.5303
696127;Prudyanka;Prudyanka;Prudjanka,Prudyanka,Прудянка;50.23606;36.16835;P;PPL;UA;;07;;;;1924;;133;Europe/Kiev;2014-06-27;Ukraine;50.23606, 36.16835
